{"features": [{"geometry": {"coordinates": [-0.120784, 51.525479], "type": "Point"}, "properties": {"Address": "49 Mecklenburgh Square, WC1N 2NY", "EstablishmentName": "Thomas Coram Centre", "NO2_conc": 45.10371, "NumberOfPupils": 133.0, "PM25_conc": 15.19159, "Tel": 2075200385.0, "URN": 100005, "Web": "http://www.thomascoram.camden.sch.uk/"}, "type": "Feature"}, {"geometry": {"coordinates": [-0.123908, 51.528748], "type": "Point"}, "properties": {"Address": "Tonbridge Street, WC1H 9EG", "EstablishmentName": "Argyle Primary School", "NO2_conc": 45.14359, "NumberOfPupils": 350.0, "PM25_conc": 14.98009, "Tel": 2078374590.0, "URN": 100008, "Web": "http://www.argyle.camden.sch.uk/"}, "type": "Feature"}, {"geometry": {"coordinates": [-0.200173, 51.550679], "type": "Point"}, "properties": {"Address": "Dornfell Street, NW6 1QL", "EstablishmentName": "Beckford Primary School", "NO2_conc": 38.33753, "NumberOfPupils": 410.0, "PM25_conc": 13.56339, "Tel": 2074358646.0, "URN": 100009, "Web": "http://www.beckford.camden.sch.uk/"}, "type": "Feature"}, {"geometry": {"coordinates": [-0.12784, 51.547461], "type": "Point"}, "properties": {"Address": "Cliff Villas, NW1 9AL", "EstablishmentName": "Brecknock Primary School", "NO2_conc": 41.61902, "NumberOfPupils": 405.0, "PM25_conc": 14.07347, "Tel": 2074856334.0, "URN": 100010, "Web": "http://www.brecknock.camden.sch.uk/"}, "type": "Feature"}, {"geometry": {"coordinates": [-0.144579, 51.563545], "type": "Point"}, "properties": {"Address": "Chester Road, N19 5DH", "EstablishmentName": "Brookfield Primary School", "NO2_conc": 36.98798, "NumberOfPupils": 427.0, "PM25_conc": 13.37181, "Tel": 2072729627.0, "URN": 100011, "Web": "http://www.brookfield.camden.sch.uk/"}, "type": "Feature"}, {"geometry": {"coordinates": [-0.149699, 51.551171], "type": "Point"}, "properties": {"Address": "Grafton Road, NW5 4AX", "EstablishmentName": "Carlton Primary School", "NO2_conc": 42.53236, "NumberOfPupils": 285.0, "PM25_conc": 14.28757, "Tel": 2074851947.0, "URN": 100012, "Web": "http://www.carlton.camden.sch.uk/"}, "type": "Feature"}, {"geometry": {"coordinates": [-0.131139, 51.532766], "type": "Point"}, "properties": {"Address": "174 Ossulston Street, NW1 1DN", "EstablishmentName": "Edith Neville Primary School", "NO2_conc": 42.63216, "NumberOfPupils": 197.0, "PM25_conc": 14.53058, "Tel": 2073877158.0, "URN": 100013, "Web": "http://www.edithneville.camden.sch.uk/"}, "type": "Feature"}, {"geometry": {"coordinates": [-0.159841, 51.553264], "type": "Point"}, "properties": {"Address": "Fleet Road, NW3 2QT", "EstablishmentName": "Fleet Primary School", "NO2_conc": 42.3968, "NumberOfPupils": 228.0, "PM25_conc": 14.06394, "Tel": 2074852028.0, "URN": 100014, "Web": "http://www.fleet.camden.sch.uk/"}, "type": "Feature"}, {"geometry": {"coordinates": [-0.142834, 51.542646], "type": "Point"}, "properties": {"Address": "Hawley Road, NW1 8RP", "EstablishmentName": "Hawley Primary School", "NO2_conc": 46.63513, "NumberOfPupils": 188.0, "PM25_conc": 14.60481, "Tel": 2074855020.0, "URN": 100015, "Web": "http://www.hawley.camden.sch.uk/"}, "type": "Feature"}, {"geometry": {"coordinates": [-0.19683, 51.543308], "type": "Point"}, "properties": {"Address": "Kingsgate Road, NW6 2JG", "EstablishmentName": "Kingsgate Infant School", "NO2_conc": 38.87127, "NumberOfPupils": "", "PM25_conc": 13.69216, "Tel": 2076245379.0, "URN": 100017, "Web": ""}, "type": "Feature"}, {"geometry": {"coordinates": [-0.140435, 51.527545], "type": "Point"}, "properties": {"Address": "74 Stanhope Street, NW1 3EX", "EstablishmentName": "Netley Primary School & Centre for Autism", "NO2_conc": 44.69357, "NumberOfPupils": 417.0, "PM25_conc": 14.72545, "Tel": 2037720350.0, "URN": 100018, "Web": "www.netley.camden.sch.uk/"}, "type": "Feature"}, {"geometry": {"coordinates": [-0.176876, 51.557954], "type": "Point"}, "properties": {"Address": "Streatley Place, NW3 1HU", "EstablishmentName": "New End Primary School", "NO2_conc": 38.46202, "NumberOfPupils": 377.0, "PM25_conc": 13.50104, "Tel": 2074310961.0, "URN": 100019, "Web": "http://www.newend.camden.sch.uk/"}, "type": "Feature"}, {"geometry": {"coordinates": [-0.151354, 51.539507], "type": "Point"}, "properties": {"Address": "Princess Road, NW1 8JL", "EstablishmentName": "Primrose Hill School", "NO2_conc": 41.00713, "NumberOfPupils": 472.0, "PM25_conc": 14.08199, "Tel": 2077228500.0, "URN": 100020, "Web": "http://www.primrosehill.camden.sch.uk/"}, "type": "Feature"}, {"geometry": {"coordinates": [-0.150589, 51.547714], "type": "Point"}, "properties": {"Address": "Rhyl Street, NW5 3HB", "EstablishmentName": "Rhyl Primary School", "NO2_conc": 40.52738, "NumberOfPupils": 396.0, "PM25_conc": 14.00243, "Tel": 2074854899.0, "URN": 100021, "Web": "www.rhylprim.camden.sch.uk/"}, "type": "Feature"}, {"geometry": {"coordinates": [-0.13655, 51.535478], "type": "Point"}, "properties": {"Address": "Camden Street, NW1 0LL", "EstablishmentName": "Richard Cobden Primary School", "NO2_conc": 44.98552, "NumberOfPupils": 415.0, "PM25_conc": 14.55589, "Tel": 2073875909.0, "URN": 100022, "Web": "http://www.rcobden.camden.sch.uk/"}, "type": "Feature"}, {"geometry": {"coordinates": [-0.132841, 51.549672], "type": "Point"}, "properties": {"Address": "Torriano Avenue, NW5 2SJ", "EstablishmentName": "Torriano Primary School", "NO2_conc": 40.5639, "NumberOfPupils": 444.0, "PM25_conc": 13.97192, "Tel": 2074240202.0, "URN": 100023, "Web": "http://www.torriano.camden.sch.uk/"}, "type": "Feature"}, {"geometry": {"coordinates": [-0.132841, 51.549672], "type": "Point"}, "properties": {"Address": "Torriano Avenue, NW5 2SJ", "EstablishmentName": "Torriano Infant School", "NO2_conc": 40.5639, "NumberOfPupils": "", "PM25_conc": 13.97192, "Tel": 2074854325.0, "URN": 100024, "Web": "http://www.torrianoinf.camden.sch.uk/"}, "type": "Feature"}, {"geometry": {"coordinates": [-0.151791, 51.555062], "type": "Point"}, "properties": {"Address": "Mansfield Road, NW3 2JB", "EstablishmentName": "Gospel Oak Primary School", "NO2_conc": 39.91816, "NumberOfPupils": 459.0, "PM25_conc": 13.80644, "Tel": 2074857435.0, "URN": 100025, "Web": "www.gospeloak.camden.sch.uk"}, "type": "Feature"}, {"geometry": {"coordinates": [-0.175861, 51.553397], "type": "Point"}, "properties": {"Address": "86A Fitzjohn's Avenue, NW3 6NP", "EstablishmentName": "Fitzjohn's Primary School", "NO2_conc": 42.50961, "NumberOfPupils": 227.0, "PM25_conc": 13.988129999999998, "Tel": 2074359797.0, "URN": 100026, "Web": "http://www.fitzjohns.camden.sch.uk/"}, "type": "Feature"}, {"geometry": {"coordinates": [-0.139013, 51.554635], "type": "Point"}, "properties": {"Address": "Lupton Street, NW5 2JA", "EstablishmentName": "Eleanor Palmer Primary School", "NO2_conc": 40.29005, "NumberOfPupils": 236.0, "PM25_conc": 13.85039, "Tel": 2074852155.0, "URN": 100027, "Web": "http://www.eleanorpalmer.camden.sch.uk/"}, "type": "Feature"}, {"geometry": {"coordinates": [-0.144239, 51.53114], "type": "Point"}, "properties": {"Address": "Redhill Street, NW1 4BD", "EstablishmentName": "Christ Church School", "NO2_conc": 42.63148, "NumberOfPupils": 224.0, "PM25_conc": 14.37539, "Tel": 2073877881.0, "URN": 100029, "Web": "http://www.cchurchnw1.camden.sch.uk"}, "type": "Feature"}, {"geometry": {"coordinates": [-0.193645, 51.552351], "type": "Point"}, "properties": {"Address": "152-158 Mill Lane, NW6 1TF", "EstablishmentName": "Emmanuel Church of England Primary School", "NO2_conc": 40.21336, "NumberOfPupils": 266.0, "PM25_conc": 13.79585, "Tel": 2074317984.0, "URN": 100030, "Web": "http://www.emmanuel.camden.sch.uk/"}, "type": "Feature"}, {"geometry": {"coordinates": [-0.139271, 51.54972], "type": "Point"}, "properties": {"Address": "Islip Street, NW5 2TU", "EstablishmentName": "Kentish Town Church of England Primary School", "NO2_conc": 41.09123, "NumberOfPupils": 237.0, "PM25_conc": 14.02164, "Tel": 2074851279.0, "URN": 100034, "Web": "http://www.kentishtown.camden.sch.uk/"}, "type": "Feature"}, {"geometry": {"coordinates": [-0.166783, 51.552087], "type": "Point"}, "properties": {"Address": "238 Haverstock Hill, NW3 2AE", "EstablishmentName": "Rosary Roman Catholic Primary School", "NO2_conc": 42.52917, "NumberOfPupils": 324.0, "PM25_conc": 14.08182, "Tel": 2077946292.0, "URN": 100035, "Web": "http://www.rosary.camden.sch.uk/"}, "type": "Feature"}, {"geometry": {"coordinates": [-0.111026, 51.520205], "type": "Point"}, "properties": {"Address": "Baldwins Gardens, EC1N 7SD", "EstablishmentName": "St Alban's Church of England Primary School", "NO2_conc": 46.22754000000001, "NumberOfPupils": 198.0, "PM25_conc": 15.46334, "Tel": 2072428585.0, "URN": 100036, "Web": "www.stalbanscamden.co.uk"}, "type": "Feature"}, {"geometry": {"coordinates": [-0.134358, 51.531621], "type": "Point"}, "properties": {"Address": "Aldenham Street, NW1 1PS", "EstablishmentName": "St Aloysius Catholic Primary School", "NO2_conc": 43.42121, "NumberOfPupils": 260.0, "PM25_conc": 14.62672, "Tel": 2073879591.0, "URN": 100037, "Web": "http://www.acps.camden.sch.uk/"}, "type": "Feature"}, {"geometry": {"coordinates": [-0.132454, 51.530224], "type": "Point"}, "properties": {"Address": "28 Phoenix Road, NW1 1TA", "EstablishmentName": "St Aloysius Roman Catholic Infant School", "NO2_conc": 43.3433, "NumberOfPupils": "", "PM25_conc": 14.6971, "Tel": 2073873551.0, "URN": 100038, "Web": "http://www.staloysiusinf.camden.sch.uk/"}, "type": "Feature"}, {"geometry": {"coordinates": [-0.157525, 51.551681], "type": "Point"}, "properties": {"Address": "Southampton Road, NW5 4JS", "EstablishmentName": "St Dominic's Catholic Primary School", "NO2_conc": 44.19685, "NumberOfPupils": 222.0, "PM25_conc": 14.35126, "Tel": 2074855918.0, "URN": 100039, "Web": "http://www.stdominics.camden.sch.uk/"}, "type": "Feature"}, {"geometry": {"coordinates": [-0.116602, 51.522372], "type": "Point"}, "properties": {"Address": "John's Mews, WC1N 2NX", "EstablishmentName": "St George the Martyr Church of England Primary School", "NO2_conc": 45.9727, "NumberOfPupils": 213.0, "PM25_conc": 15.43525, "Tel": 2074055640.0, "URN": 100040, "Web": "http://www.stgeorge.camden.sch.uk/"}, "type": "Feature"}, {"geometry": {"coordinates": [-0.121873, 51.516189], "type": "Point"}, "properties": {"Address": "Macklin Street, WC2B 5NA", "EstablishmentName": "St Josephs Catholic Primary School", "NO2_conc": 47.88108, "NumberOfPupils": 201.0, "PM25_conc": 16.119770000000006, "Tel": 2072427712.0, "URN": 100041, "Web": "http://www.stjosephs.camden.sch.uk/"}, "type": "Feature"}, {"geometry": {"coordinates": [-0.193355, 51.540368], "type": "Point"}, "properties": {"Address": "Quex Road, NW6 4PG", "EstablishmentName": "St Mary's Kilburn Church of England Primary School", "NO2_conc": 43.74365, "NumberOfPupils": 224.0, "PM25_conc": 14.22534, "Tel": 2073726565.0, "URN": 100042, "Web": "http://www.stmarykilburn.camden.sch.uk/"}, "type": "Feature"}, {"geometry": {"coordinates": [-0.134471, 51.532379], "type": "Point"}, "properties": {"Address": "81 Werrington Street, NW1 1QP", "EstablishmentName": "St Mary and St Pancras Church of England Primary School", "NO2_conc": 43.23277, "NumberOfPupils": 226.0, "PM25_conc": 14.57336, "Tel": 2073876117.0, "URN": 100043, "Web": "www.stmp.camden.sch.uk"}, "type": "Feature"}, {"geometry": {"coordinates": [-0.142924, 51.549275], "type": "Point"}, "properties": {"Address": "Holmes Road, NW5 3AH", "EstablishmentName": "St Patrick's Catholic Primary School", "NO2_conc": 39.88957, "NumberOfPupils": 210.0, "PM25_conc": 13.908129999999998, "Tel": 2072671200.0, "URN": 100045, "Web": "http://www.stpatricks.camden.sch.uk/"}, "type": "Feature"}, {"geometry": {"coordinates": [-0.137479, 51.538865], "type": "Point"}, "properties": {"Address": "Pratt Street, NW1 0DP", "EstablishmentName": "Our Lady Roman Catholic Primary School", "NO2_conc": 44.45485, "NumberOfPupils": 217.0, "PM25_conc": 14.45558, "Tel": 2074857997.0, "URN": 100048, "Web": "https://www.ourladys.camden.sch.uk/"}, "type": "Feature"}, {"geometry": {"coordinates": [-0.165747, 51.544859], "type": "Point"}, "properties": {"Address": "15 Eton Avenue, NW3 3EL", "EstablishmentName": "Sarum Hall School", "NO2_conc": 39.7512, "NumberOfPupils": 184.0, "PM25_conc": 13.86039, "Tel": 2077942261.0, "URN": 100063, "Web": "https://www.sarumhallschool.co.uk/"}, "type": "Feature"}, {"geometry": {"coordinates": [-0.145101, 51.539022], "type": "Point"}, "properties": {"Address": "31 Inverness Street, NW1 7HB", "EstablishmentName": "The Cavendish School", "NO2_conc": 42.32416, "NumberOfPupils": 237.0, "PM25_conc": 14.22149, "Tel": 2074851958.0, "URN": 100066, "Web": "http://www.cavendish-school.co.uk/"}, "type": "Feature"}, {"geometry": {"coordinates": [-0.176307, 51.550536], "type": "Point"}, "properties": {"Address": "47 Fitzjohn's Avenue, NW3 6PG", "EstablishmentName": "St Mary's School", "NO2_conc": 40.74783, "NumberOfPupils": 299.0, "PM25_conc": 13.91876, "Tel": 2074351868.0, "URN": 100067, "Web": "http://www.stmh.co.uk/"}, "type": "Feature"}, {"geometry": {"coordinates": [-0.176285, 51.548926], "type": "Point"}, "properties": {"Address": "33 Fitzjohn's Avenue, NW3 5JY", "EstablishmentName": "North Bridge Nursery School", "NO2_conc": 40.60772, "NumberOfPupils": 163.0, "PM25_conc": 13.93115, "Tel": 2072676266.0, "URN": 100071, "Web": "www.northbridgehouse.com"}, "type": "Feature"}, {"geometry": {"coordinates": [-0.168383, 51.553182], "type": "Point"}, "properties": {"Address": "St Stephens Hall, NW3 2PP", "EstablishmentName": "Hampstead Hill School", "NO2_conc": 42.1805, "NumberOfPupils": 389.0, "PM25_conc": 13.96, "Tel": 2074356262.0, "URN": 100073, "Web": "www.hampsteadhillschool.co.uk"}, "type": "Feature"}, {"geometry": {"coordinates": [-0.158565, 51.547705], "type": "Point"}, "properties": {"Address": "2 Parkhill Road, NW3 2YN", "EstablishmentName": "The Village School", "NO2_conc": 40.51544000000001, "NumberOfPupils": 95.0, "PM25_conc": 13.950120000000002, "Tel": 2074854673.0, "URN": 100077, "Web": "www.thevillageschool.org.uk"}, "type": "Feature"}, {"geometry": {"coordinates": [-0.17652, 51.558569], "type": "Point"}, "properties": {"Address": "16 New End, NW3 1JA", "EstablishmentName": "Heathside Preparatory School", "NO2_conc": 38.22279, "NumberOfPupils": 501.0, "PM25_conc": 13.4694, "Tel": 2030584011.0, "URN": 100078, "Web": "www.heathsideprep.co.uk"}, "type": "Feature"}, {"geometry": {"coordinates": [-0.177446, 51.55344], "type": "Point"}, "properties": {"Address": "2 Arkwright Road, NW3 6AE", "EstablishmentName": "Devonshire House Preparatory School", "NO2_conc": 41.09367, "NumberOfPupils": 674.0, "PM25_conc": 13.84769, "Tel": 2074351916.0, "URN": 100080, "Web": "http://www.devonshirehouseschool.co.uk/"}, "type": "Feature"}, {"geometry": {"coordinates": [-0.181333, 51.544589], "type": "Point"}, "properties": {"Address": "19 Greencroft Gardens, NW6 3LP", "EstablishmentName": "Broadhurst School", "NO2_conc": 39.26556, "NumberOfPupils": 130.0, "PM25_conc": 13.84266, "Tel": 2073284280.0, "URN": 100081, "Web": "www.broadhurstschool.com"}, "type": "Feature"}, {"geometry": {"coordinates": [-0.174751, 51.554459], "type": "Point"}, "properties": {"Address": "65 Rosslyn Hill, NW3 5UD", "EstablishmentName": "Royal School Hampstead", "NO2_conc": 39.17688, "NumberOfPupils": "", "PM25_conc": 13.65099, "Tel": 2077947708.0, "URN": 100083, "Web": "http://www.royalschoolhampstead.net/"}, "type": "Feature"}, {"geometry": {"coordinates": [-0.191278, 51.542935], "type": "Point"}, "properties": {"Address": "13 Woodchurch Road, NW6 3PL", "EstablishmentName": "Rainbow Montessori School", "NO2_conc": 39.04712, "NumberOfPupils": 39.0, "PM25_conc": 13.79946, "Tel": 2073288986.0, "URN": 100086, "Web": "http://www.rainbowmontessori.co.uk/"}, "type": "Feature"}, {"geometry": {"coordinates": [-0.207917, 51.551095], "type": "Point"}, "properties": {"Address": "68 Shoot Up Hill, NW2 3XL", "EstablishmentName": "The Mulberry House School", "NO2_conc": 40.38321, "NumberOfPupils": 201.0, "PM25_conc": 13.64255, "Tel": 2084527340.0, "URN": 100087, "Web": "www.mulberryhouseschool.com"}, "type": "Feature"}, {"geometry": {"coordinates": [-0.178881, 51.549299], "type": "Point"}, "properties": {"Address": "16 Netherhall Gardens, NW3 5TH", "EstablishmentName": "Southbank International School", "NO2_conc": 40.93817, "NumberOfPupils": 220.0, "PM25_conc": 14.07342, "Tel": 2074311200.0, "URN": 100090, "Web": "http://www.southbank.org/"}, "type": "Feature"}, {"geometry": {"coordinates": [-0.126955, 51.538095], "type": "Point"}, "properties": {"Address": "4 Wollstonecraft Street, N1C 4BT", "EstablishmentName": "Frank Barnes School for Deaf Children", "NO2_conc": 41.24059000000001, "NumberOfPupils": 34.0, "PM25_conc": 14.24944, "Tel": 2073917040.0, "URN": 100091, "Web": "www.fbarnes.camden.sch.uk"}, "type": "Feature"}, {"geometry": {"coordinates": [-0.171343, 51.540899], "type": "Point"}, "properties": {"Address": "80 Avenue Road, NW8 6HX", "EstablishmentName": "Swiss Cottage School - Development & Research Centre", "NO2_conc": 41.18319, "NumberOfPupils": 245.0, "PM25_conc": 14.0614, "Tel": 2076818080.0, "URN": 100096, "Web": "www.swisscottage.camden.sch.uk"}, "type": "Feature"}, {"geometry": {"coordinates": [-0.023253, 51.481349], "type": "Point"}, "properties": {"Address": "McMillan Street, SE8 3EH", "EstablishmentName": "Rachel McMillan Nursery School and Children's Centre", "NO2_conc": 39.8646, "NumberOfPupils": 155.0, "PM25_conc": 13.77298, "Tel": 2086924041.0, "URN": 100097, "Web": "www.rachelmcmillannursery.co.uk"}, "type": "Feature"}, {"geometry": {"coordinates": [0.041451, 51.48703], "type": "Point"}, "properties": {"Address": "Pound Park Road, SE7 8AF", "EstablishmentName": "Pound Park Nursery School", "NO2_conc": 34.57883, "NumberOfPupils": 212.0, "PM25_conc": 13.14201, "Tel": 2088581791.0, "URN": 100098, "Web": "http://www.poundparknursery.co.uk/"}, "type": "Feature"}, {"geometry": {"coordinates": [0.112366, 51.486484], "type": "Point"}, "properties": {"Address": "Dahlia Road, SE2 0SX", "EstablishmentName": "Abbey Wood Nursery School", "NO2_conc": 31.12455, "NumberOfPupils": 141.0, "PM25_conc": 12.63588, "Tel": 2083110619.0, "URN": 100099, "Web": "http://abbeywoodnurseryschool.co.uk/"}, "type": "Feature"}, {"geometry": {"coordinates": [0.006283, 51.487853], "type": "Point"}, "properties": {"Address": "43 Commerell Street, SE10 0EA", "EstablishmentName": "Robert Owen Nursery School", "NO2_conc": 37.14514000000001, "NumberOfPupils": 259.0, "PM25_conc": 13.78987, "Tel": 2088580529.0, "URN": 100102, "Web": ""}, "type": "Feature"}, {"geometry": {"coordinates": [0.011318, 51.493576], "type": "Point"}, "properties": {"Address": "50 John Harrison Way, SE10 0BG", "EstablishmentName": "Millennium Primary School", "NO2_conc": 38.9251, "NumberOfPupils": "", "PM25_conc": 13.980579999999998, "Tel": 2088580394.0, "URN": 100111, "Web": "www.millenniumprimary.org.uk/"}, "type": "Feature"}, {"geometry": {"coordinates": [0.08603, 51.448484], "type": "Point"}, "properties": {"Address": "Rainham Close, SE9 2JH", "EstablishmentName": "Alderwood Primary School", "NO2_conc": 30.56257, "NumberOfPupils": 225.0, "PM25_conc": 12.53522, "Tel": 2088506841.0, "URN": 100112, "Web": "http://www.alderwood.greenwich.sch.uk"}, "type": "Feature"}, {"geometry": {"coordinates": [0.094636, 51.487144], "type": "Point"}, "properties": {"Address": "Plumstead High Street, SE18 1HE", "EstablishmentName": "Bannockburn Primary School", "NO2_conc": 42.96104, "NumberOfPupils": 861.0, "PM25_conc": 13.81515, "Tel": 2088542169.0, "URN": 100113, "Web": "www.bannockburnprimaryschool.com/"}, "type": "Feature"}, {"geometry": {"coordinates": [-0.014511, 51.470078], "type": "Point"}, "properties": {"Address": "Lewisham Road, SE13 7QP", "EstablishmentName": "Morden Mount Primary School", "NO2_conc": 37.84818, "NumberOfPupils": 430.0, "PM25_conc": 13.43155, "Tel": 2086922920.0, "URN": 100114, "Web": "www.mordenmount.greenwich.sch.uk/"}, "type": "Feature"}, {"geometry": {"coordinates": [0.032116, 51.476311], "type": "Point"}, "properties": {"Address": "Rectory Field Crescent, SE7 7DG", "EstablishmentName": "Cherry Orchard Primary School", "NO2_conc": 35.0586, "NumberOfPupils": 243.0, "PM25_conc": 13.19225, "Tel": 2088566766.0, "URN": 100115, "Web": "www.cherryorchardschool.org.uk"}, "type": "Feature"}, {"geometry": {"coordinates": [0.08864, 51.487377], "type": "Point"}, "properties": {"Address": "Gallosson Road, SE18 1QY", "EstablishmentName": "Conway Infant School", "NO2_conc": 33.15984, "NumberOfPupils": "", "PM25_conc": 12.90442, "Tel": 2088540897.0, "URN": 100117, "Web": ""}, "type": "Feature"}, {"geometry": {"coordinates": [0.062626, 51.461525], "type": "Point"}, "properties": {"Address": "Rochester Way, SE9 1RD", "EstablishmentName": "Deansfield Infant School", "NO2_conc": 32.42778, "NumberOfPupils": "", "PM25_conc": 12.8583, "Tel": 2088503362.0, "URN": 100119, "Web": ""}, "type": "Feature"}, {"geometry": {"coordinates": [0.035521, 51.457367], "type": "Point"}, "properties": {"Address": "Ealdham Square, SE9 6BP", "EstablishmentName": "Ealdham Primary School", "NO2_conc": 34.99552, "NumberOfPupils": 438.0, "PM25_conc": 13.34481, "Tel": 2088505484.0, "URN": 100120, "Web": "www.ealdhamprimary.org.uk"}, "type": "Feature"}, {"geometry": {"coordinates": [0.081141, 51.486233], "type": "Point"}, "properties": {"Address": "Brewery Road, SE18 7PX", "EstablishmentName": "South Rise Infant School", "NO2_conc": 32.60682, "NumberOfPupils": "", "PM25_conc": 12.8763, "Tel": 2088546813.0, "URN": 100122, "Web": ""}, "type": "Feature"}, {"geometry": {"coordinates": [0.064496, 51.47838], "type": "Point"}, "properties": {"Address": "Paget Rise, SE18 3PY", "EstablishmentName": "Eglinton Infant School", "NO2_conc": 33.61085, "NumberOfPupils": "", "PM25_conc": 13.21742, "Tel": 2088546917.0, "URN": 100124, "Web": ""}, "type": "Feature"}, {"geometry": {"coordinates": [0.026988, 51.484412], "type": "Point"}, "properties": {"Address": "Victoria Way, SE7 7NQ", "EstablishmentName": "Fossdene Primary School", "NO2_conc": 36.30453, "NumberOfPupils": 393.0, "PM25_conc": 13.66787, "Tel": 2088585585.0, "URN": 100125, "Web": "www.fossdeneschool.org/"}, "type": "Feature"}, {"geometry": {"coordinates": [0.098724, 51.484571], "type": "Point"}, "properties": {"Address": "Purrett Road, SE18 1JR", "EstablishmentName": "Gallions Mount Primary School", "NO2_conc": 31.8814, "NumberOfPupils": 354.0, "PM25_conc": 12.749, "Tel": 2088542691.0, "URN": 100126, "Web": "www.gallionsmount.greenwich.sch.uk"}, "type": "Feature"}, {"geometry": {"coordinates": [0.054503, 51.458556], "type": "Point"}, "properties": {"Address": "Earlshall Road, SE9 1QG", "EstablishmentName": "Gordon Primary School", "NO2_conc": 33.26538, "NumberOfPupils": 437.0, "PM25_conc": 13.03076, "Tel": 2088505486.0, "URN": 100127, "Web": "www.gordonprimary.co.uk"}, "type": "Feature"}, {"geometry": {"coordinates": [0.056831, 51.434117], "type": "Point"}, "properties": {"Address": "Witherston Way, SE9 3JN", "EstablishmentName": "Greenacres Primary School and Language Impairment Unit", "NO2_conc": 30.62181, "NumberOfPupils": 312.0, "PM25_conc": 12.53779, "Tel": 2088574965.0, "URN": 100128, "Web": "www.greenacres.org.uk/"}, "type": "Feature"}, {"geometry": {"coordinates": [0.041637, 51.45539], "type": "Point"}, "properties": {"Address": "Haimo Road, SE9 6DY", "EstablishmentName": "Haimo Primary School", "NO2_conc": 36.90945, "NumberOfPupils": 350.0, "PM25_conc": 13.39544, "Tel": 2088504911.0, "URN": 100129, "Web": "http://www.haimoprimaryschool.co.uk"}, "type": "Feature"}, {"geometry": {"coordinates": [0.042855, 51.462365], "type": "Point"}, "properties": {"Address": "Henwick Road, SE9 6NZ", "EstablishmentName": "Henwick Primary School", "NO2_conc": 33.91891, "NumberOfPupils": 424.0, "PM25_conc": 13.28534, "Tel": 2088568627.0, "URN": 100131, "Web": "http://www.henwickprimary.co.uk"}, "type": "Feature"}, {"geometry": {"coordinates": [0.025003, 51.444456], "type": "Point"}, "properties": {"Address": "Alnwick Road, SE12 9BT", "EstablishmentName": "Horn Park Primary School", "NO2_conc": 32.504690000000004, "NumberOfPupils": 434.0, "PM25_conc": 12.76712, "Tel": 2088575003.0, "URN": 100132, "Web": "www.hornpark.greenwich.sch.uk/"}, "type": "Feature"}, {"geometry": {"coordinates": [-0.0242, 51.483757], "type": "Point"}, "properties": {"Address": "Benbow Street, SE8 3HD", "EstablishmentName": "Hughes Fields Primary School", "NO2_conc": 37.12372, "NumberOfPupils": "", "PM25_conc": 13.47116, "Tel": 2086924328.0, "URN": 100133, "Web": ""}, "type": "Feature"}, {"geometry": {"coordinates": [0.020569, 51.478975], "type": "Point"}, "properties": {"Address": "Invicta Road, SE3 7HE", "EstablishmentName": "Invicta Primary School", "NO2_conc": 37.74412, "NumberOfPupils": 677.0, "PM25_conc": 13.48804, "Tel": 2088583831.0, "URN": 100134, "Web": "www.invictaprimaryschool.org.uk/"}, "type": "Feature"}, {"geometry": {"coordinates": [0.032182, 51.470024], "type": "Point"}, "properties": {"Address": "Hargood Road, SE3 8HS", "EstablishmentName": "Kidbrooke Park Primary School", "NO2_conc": 34.87719, "NumberOfPupils": 414.0, "PM25_conc": 13.1209, "Tel": 2088568315.0, "URN": 100136, "Web": "www.kidbrookepark.greenwich.sch.uk/"}, "type": "Feature"}, {"geometry": {"coordinates": [-0.001557, 51.483796], "type": "Point"}, "properties": {"Address": "Old Woolwich Road, SE10 9NY", "EstablishmentName": "Meridian Primary School", "NO2_conc": 38.68512, "NumberOfPupils": 237.0, "PM25_conc": 13.6259, "Tel": 2088583572.0, "URN": 100137, "Web": "www.meridian.greenwich.sch.uk"}, "type": "Feature"}, {"geometry": {"coordinates": [0.037919, 51.444304], "type": "Point"}, "properties": {"Address": "Middle Park Avenue, SE9 5RX", "EstablishmentName": "Middle Park Infant School", "NO2_conc": 32.35634, "NumberOfPupils": "", "PM25_conc": 12.70911, "Tel": 2088508747.0, "URN": 100139, "Web": ""}, "type": "Feature"}, {"geometry": {"coordinates": [0.074371, 51.477972], "type": "Point"}, "properties": {"Address": "Plum Lane, SE18 3HW", "EstablishmentName": "Plumcroft Primary School", "NO2_conc": 32.60923, "NumberOfPupils": 791.0, "PM25_conc": 12.93171, "Tel": 2088541308.0, "URN": 100140, "Web": "www.plumcroftprimary.co.uk"}, "type": "Feature"}, {"geometry": {"coordinates": [0.025688, 51.480091], "type": "Point"}, "properties": {"Address": "Wyndcliff Road, SE7 7JP", "EstablishmentName": "Sherington Primary School", "NO2_conc": 37.05475, "NumberOfPupils": 480.0, "PM25_conc": 13.48337, "Tel": 2088585497.0, "URN": 100141, "Web": "www.sheringtonprimary.co.uk/"}, "type": "Feature"}, {"geometry": {"coordinates": [0.041841, 51.486735], "type": "Point"}, "properties": {"Address": "Thorntree Road, SE7 8AE", "EstablishmentName": "Thorntree Primary School", "NO2_conc": 34.54842, "NumberOfPupils": 239.0, "PM25_conc": 13.13789, "Tel": 2088580268.0, "URN": 100142, "Web": "www.thorntree.greenwich.sch.uk/"}, "type": "Feature"}, {"geometry": {"coordinates": [0.090363, 51.477166], "type": "Point"}, "properties": {"Address": "Timbercroft Lane, SE18 2SG", "EstablishmentName": "Timbercroft Infant School", "NO2_conc": 31.67769, "NumberOfPupils": "", "PM25_conc": 12.76872, "Tel": 2088546915.0, "URN": 100144, "Web": ""}, "type": "Feature"}, {"geometry": {"coordinates": [0.049302, 51.489303], "type": "Point"}, "properties": {"Address": "Woodhill, SE18 5JE", "EstablishmentName": "Woodhill Primary School", "NO2_conc": 34.445159999999994, "NumberOfPupils": 600.0, "PM25_conc": 13.03563, "Tel": 2088545055.0, "URN": 100145, "Web": "www.woodhillschool.co.uk/"}, "type": "Feature"}, {"geometry": {"coordinates": [0.069503, 51.44009], "type": "Point"}, "properties": {"Address": "Footscray Road, SE9 2EH", "EstablishmentName": "Wyborne Primary School", "NO2_conc": 31.95741, "NumberOfPupils": 421.0, "PM25_conc": 12.63355, "Tel": 2088504933.0, "URN": 100146, "Web": "www.wyborne.greenwich.sch.uk/"}, "type": "Feature"}, {"geometry": {"coordinates": [0.062002, 51.42819], "type": "Point"}, "properties": {"Address": "Milverton Way, SE9 3EY", "EstablishmentName": "Ruxley Manor Primary School", "NO2_conc": 30.67295, "NumberOfPupils": "", "PM25_conc": 12.54414, "Tel": 2088573560.0, "URN": 100147, "Web": ""}, "type": "Feature"}, {"geometry": {"coordinates": [0.018458, 51.46411], "type": "Point"}, "properties": {"Address": "Medebourne Close, SE3 9AB", "EstablishmentName": "Brooklands Primary School", "NO2_conc": 34.62314, "NumberOfPupils": "", "PM25_conc": 13.29102, "Tel": 2088528210.0, "URN": 100148, "Web": "http://www.brooklandsschool.org.uk/"}, "type": "Feature"}, {"geometry": {"coordinates": [0.062445, 51.427805], "type": "Point"}, "properties": {"Address": "Milverton Way, SE9 3EY", "EstablishmentName": "Montbelle Primary School", "NO2_conc": 30.09979, "NumberOfPupils": 453.0, "PM25_conc": 12.47632, "Tel": 2088573909.0, "URN": 100149, "Web": "www.montbelle.org.uk/"}, "type": "Feature"}, {"geometry": {"coordinates": [0.117105, 51.493323], "type": "Point"}, "properties": {"Address": "Boxgrove Road, SE2 9JP", "EstablishmentName": "Boxgrove Primary School", "NO2_conc": 30.94325, "NumberOfPupils": 457.0, "PM25_conc": 12.55177, "Tel": 2083101912.0, "URN": 100150, "Web": "www.boxgrove.greenwich.sch.uk"}, "type": "Feature"}, {"geometry": {"coordinates": [0.094183, 51.47851], "type": "Point"}, "properties": {"Address": "Bassant Road, SE18 2NP", "EstablishmentName": "Rockliffe Manor Primary School", "NO2_conc": 31.54072, "NumberOfPupils": 230.0, "PM25_conc": 12.70083, "Tel": 2088544785.0, "URN": 100151, "Web": "www.rockliffemanor.co.uk/"}, "type": "Feature"}, {"geometry": {"coordinates": [0.111277, 51.495964], "type": "Point"}, "properties": {"Address": "Cookhill Road, SE2 9PD", "EstablishmentName": "De Lucy Primary School", "NO2_conc": 30.9883, "NumberOfPupils": 598.0, "PM25_conc": 12.53581, "Tel": 2083105290.0, "URN": 100152, "Web": "www.delucyprimaryschool.co.uk/"}, "type": "Feature"}, {"geometry": {"coordinates": [-0.013112, 51.479074], "type": "Point"}, "properties": {"Address": "Randall Place, SE10 9LA", "EstablishmentName": "James Wolfe Infant School", "NO2_conc": 36.92565, "NumberOfPupils": "", "PM25_conc": 13.4395, "Tel": 2088582472.0, "URN": 100153, "Web": ""}, "type": "Feature"}, {"geometry": {"coordinates": [0.022433, 51.4612], "type": "Point"}, "properties": {"Address": "Ensign Street, SE3 9GJ", "EstablishmentName": "Wingfield Primary School", "NO2_conc": 35.27543, "NumberOfPupils": 408.0, "PM25_conc": 13.52012, "Tel": 2088561167.0, "URN": 100154, "Web": "www.wingfield.greenwich.sch.uk/"}, "type": "Feature"}, {"geometry": {"coordinates": [0.052954, 51.490426], "type": "Point"}, "properties": {"Address": "118 Frances Street, SE18 5LP", "EstablishmentName": "Cardwell Primary School", "NO2_conc": 34.71946, "NumberOfPupils": 465.0, "PM25_conc": 13.05996, "Tel": 2088541051.0, "URN": 100155, "Web": "www.cardwellschool.co.uk"}, "type": "Feature"}, {"geometry": {"coordinates": [0.074351, 51.48674], "type": "Point"}, "properties": {"Address": "Sandbach Place, SE18 7EX", "EstablishmentName": "Foxfield Primary School", "NO2_conc": 33.372840000000004, "NumberOfPupils": 707.0, "PM25_conc": 12.95566, "Tel": 2032607500.0, "URN": 100156, "Web": "www.foxfield.org.uk/"}, "type": "Feature"}, {"geometry": {"coordinates": [0.115675, 51.502882], "type": "Point"}, "properties": {"Address": "2 Bentham Road, SE28 8AR", "EstablishmentName": "Windrush Primary School", "NO2_conc": 30.88549, "NumberOfPupils": "", "PM25_conc": 12.46004, "Tel": 2083100157.0, "URN": 100157, "Web": "http://webfronter.com/greenwich/Windrush/"}, "type": "Feature"}, {"geometry": {"coordinates": [0.082751, 51.494055], "type": "Point"}, "properties": {"Address": "Whinchat Road, SE28 0EA", "EstablishmentName": "Heronsgate Primary School", "NO2_conc": 33.22934, "NumberOfPupils": 869.0, "PM25_conc": 12.82875, "Tel": 2083170809.0, "URN": 100158, "Web": "www.heronsgate.greenwich.sch.uk"}, "type": "Feature"}, {"geometry": {"coordinates": [0.113013, 51.507939], "type": "Point"}, "properties": {"Address": "Central Way, SE28 8DT", "EstablishmentName": "Linton Mead Primary School", "NO2_conc": 31.51599, "NumberOfPupils": 390.0, "PM25_conc": 12.54001, "Tel": 2083101902.0, "URN": 100159, "Web": "www.lintonmead.org.uk"}, "type": "Feature"}, {"geometry": {"coordinates": [0.070804, 51.483161], "type": "Point"}, "properties": {"Address": "Bloomfield Road, SE18 7JJ", "EstablishmentName": "Nightingale Primary School", "NO2_conc": 33.62441, "NumberOfPupils": 240.0, "PM25_conc": 13.03579, "Tel": 2088546838.0, "URN": 100160, "Web": "http://www.nightingaleprimary.org.uk/"}, "type": "Feature"}, {"geometry": {"coordinates": [0.039225, 51.461026], "type": "Point"}, "properties": {"Address": "Briset Road, SE9 6HN", "EstablishmentName": "Briset Primary School", "NO2_conc": 34.80021, "NumberOfPupils": "", "PM25_conc": 13.44271, "Tel": 2088593114.0, "URN": 100161, "Web": ""}, "type": "Feature"}, {"geometry": {"coordinates": [0.086402, 51.479674], "type": "Point"}, "properties": {"Address": "Erindale, SE18 2QQ", "EstablishmentName": "Greenslade Primary School", "NO2_conc": 32.95112, "NumberOfPupils": 232.0, "PM25_conc": 12.86537, "Tel": 2083166847.0, "URN": 100162, "Web": "www.greensladeprimary.org.uk/"}, "type": "Feature"}, {"geometry": {"coordinates": [0.060955, 51.48864], "type": "Point"}, "properties": {"Address": "Rectory Place, SE18 5DL", "EstablishmentName": "Mulgrave Primary School", "NO2_conc": 34.75597, "NumberOfPupils": 446.0, "PM25_conc": 13.1149, "Tel": 2083179211.0, "URN": 100163, "Web": "www.mulgraveprimary.org.uk"}, "type": "Feature"}, {"geometry": {"coordinates": [0.036875, 51.477433], "type": "Point"}, "properties": {"Address": "Indus Road, SE7 7EF", "EstablishmentName": "Charlton Manor Primary School", "NO2_conc": 34.42445, "NumberOfPupils": 463.0, "PM25_conc": 13.1089, "Tel": 2088566525.0, "URN": 100164, "Web": "www.charltonmanorprimary.co.uk/"}, "type": "Feature"}, {"geometry": {"coordinates": [0.056453, 51.451651], "type": "Point"}, "properties": {"Address": "Roper Street, SE9 1TR", "EstablishmentName": "Eltham Church of England Primary School", "NO2_conc": 33.64453, "NumberOfPupils": 452.0, "PM25_conc": 12.86411, "Tel": 2088501528.0, "URN": 100167, "Web": "http://www.elthamcoeschool.co.uk/"}, "type": "Feature"}, {"geometry": {"coordinates": [0.076389, 51.483413], "type": "Point"}, "properties": {"Address": "St Margaret's Grove, SE18 7RL", "EstablishmentName": "St Margaret's Church of England Primary School", "NO2_conc": 32.86887, "NumberOfPupils": 331.0, "PM25_conc": 12.94205, "Tel": 2088543924.0, "URN": 100170, "Web": "http://www.stmargaretce.greenwich.sch.uk"}, "type": "Feature"}, {"geometry": {"coordinates": [0.061187, 51.491244], "type": "Point"}, "properties": {"Address": "Kingsman Street, SE18 5PW", "EstablishmentName": "Saint Mary Magdalene Church of England All Through School", "NO2_conc": 36.9334, "NumberOfPupils": 1169.0, "PM25_conc": 13.36326, "Tel": 2088543531.0, "URN": 100171, "Web": "www.koinoniafederation.com"}, "type": "Feature"}, {"geometry": {"coordinates": [0.063965, 51.453533], "type": "Point"}, "properties": {"Address": "Glenure Road, SE9 1UF", "EstablishmentName": "St Mary's Catholic Primary School", "NO2_conc": 32.92853, "NumberOfPupils": 465.0, "PM25_conc": 12.79806, "Tel": 2088507835.0, "URN": 100172, "Web": "www.stmaryrc.org.uk/"}, "type": "Feature"}, {"geometry": {"coordinates": [0.085502, 51.487739], "type": "Point"}, "properties": {"Address": "Griffin Road, SE18 7QG", "EstablishmentName": "St Patrick's Catholic Primary School", "NO2_conc": 33.31965, "NumberOfPupils": 353.0, "PM25_conc": 12.91735, "Tel": 2088543881.0, "URN": 100173, "Web": "http://www.lgfl.net/lgfl/leas/greenwich/schools/stpatricks/"}, "type": "Feature"}, {"geometry": {"coordinates": [-0.012221, 51.481684], "type": "Point"}, "properties": {"Address": "Creek Road, SE10 9RB", "EstablishmentName": "St Alfege with St Peter's Church of England Primary School", "NO2_conc": 38.82421, "NumberOfPupils": 236.0, "PM25_conc": 13.621429999999998, "Tel": 2088583613.0, "URN": 100174, "Web": "http://www.stalfegeschool.org.uk"}, "type": "Feature"}, {"geometry": {"coordinates": [0.104023, 51.491733], "type": "Point"}, "properties": {"Address": "Mottisfont Road, SE2 9LY", "EstablishmentName": "St Thomas A Becket Roman Catholic Primary School", "NO2_conc": 30.88302, "NumberOfPupils": 394.0, "PM25_conc": 12.57417, "Tel": 2083105394.0, "URN": 100177, "Web": "www.stthomasabecketsch.org.uk/"}, "type": "Feature"}, {"geometry": {"coordinates": [0.030367, 51.459947], "type": "Point"}, "properties": {"Address": "Tudway Road, SE3 9YX", "EstablishmentName": "Holy Family Catholic Primary School", "NO2_conc": 36.37948, "NumberOfPupils": 173.0, "PM25_conc": 13.61601, "Tel": 2088562708.0, "URN": 100178, "Web": "www.hfprimary.org/"}, "type": "Feature"}, {"geometry": {"coordinates": [0.113116, 51.501138], "type": "Point"}, "properties": {"Address": "Cole Close, SE28 8GB", "EstablishmentName": "St Margaret Clitherow Catholic Primary School", "NO2_conc": 31.12611, "NumberOfPupils": 216.0, "PM25_conc": 12.50968, "Tel": 2083101699.0, "URN": 100180, "Web": "http://www.lgfl.net/lgfl/leas/greenwich/schools/stmargaretclitherow/"}, "type": "Feature"}, {"geometry": {"coordinates": [0.118856, 51.508391], "type": "Point"}, "properties": {"Address": "Hoveton Road, SE28 8LW", "EstablishmentName": "Bishop John Robinson Church of England Primary School", "NO2_conc": 30.67929, "NumberOfPupils": 211.0, "PM25_conc": 12.42211, "Tel": 2083109160.0, "URN": 100181, "Web": "www.bishopjohnrobinsonprimary.co.uk/"}, "type": "Feature"}, {"geometry": {"coordinates": [0.112674, 51.504348], "type": "Point"}, "properties": {"Address": "Bentham Road, SE28 8AS", "EstablishmentName": "Hawksmoor School", "NO2_conc": 30.73627, "NumberOfPupils": 643.0, "PM25_conc": 12.44632, "Tel": 2083102140.0, "URN": 100197, "Web": "www.hawksmoor.greenwich.sch.uk"}, "type": "Feature"}, {"geometry": {"coordinates": [0.017464, 51.474855], "type": "Point"}, "properties": {"Address": "19 Stratheden Road, SE3 7TH", "EstablishmentName": "The Pointer School", "NO2_conc": 39.56087, "NumberOfPupils": 364.0, "PM25_conc": 13.67547, "Tel": 2082931331.0, "URN": 100198, "Web": "http://pointers-school.co.uk"}, "type": "Feature"}, {"geometry": {"coordinates": [0.015716, 51.472439], "type": "Point"}, "properties": {"Address": "4 St German's Place, SE3 0NJ", "EstablishmentName": "Blackheath Preparatory School", "NO2_conc": 36.78971, "NumberOfPupils": 391.0, "PM25_conc": 13.30445, "Tel": 2088580692.0, "URN": 100199, "Web": "www.blackheathprepschool.com"}, "type": "Feature"}, {"geometry": {"coordinates": [0.019813, 51.455022], "type": "Point"}, "properties": {"Address": "63-69 Eltham Road, SE12 8UF", "EstablishmentName": "Riverston School", "NO2_conc": 35.64837, "NumberOfPupils": 194.0, "PM25_conc": 13.29121, "Tel": 2083184327.0, "URN": 100200, "Web": "www.riverstonschool.co.uk"}, "type": "Feature"}, {"geometry": {"coordinates": [0.066021, 51.435637], "type": "Point"}, "properties": {"Address": "106-110 Southwood Road, SE9 3QS", "EstablishmentName": "St Olave's Prep School", "NO2_conc": 33.580859999999994, "NumberOfPupils": 226.0, "PM25_conc": 12.83378, "Tel": 2082948930.0, "URN": 100201, "Web": "www.stolaves.org.uk"}, "type": "Feature"}, {"geometry": {"coordinates": [0.021606, 51.450324], "type": "Point"}, "properties": {"Address": "Horn Park Lane, SE12 8AW", "EstablishmentName": "Colfe's School", "NO2_conc": 33.61647, "NumberOfPupils": 1153.0, "PM25_conc": 12.92282, "Tel": 2084638102.0, "URN": 100202, "Web": ""}, "type": "Feature"}, {"geometry": {"coordinates": [0.009433, 51.467089], "type": "Point"}, "properties": {"Address": "37 Wemyss Road, SE3 0TG", "EstablishmentName": "Heath House Preparatory School", "NO2_conc": 37.37343, "NumberOfPupils": 119.0, "PM25_conc": 13.33784, "Tel": 2082971900.0, "URN": 100203, "Web": "www.heathhouseprepschool.com"}, "type": "Feature"}, {"geometry": {"coordinates": [-0.041425, 51.543254], "type": "Point"}, "properties": {"Address": "Cassland Road, E9 5BY", "EstablishmentName": "Wentworth Nursery School and Children's Centre", "NO2_conc": 41.19806, "NumberOfPupils": 98.0, "PM25_conc": 13.95525, "Tel": 2089853491.0, "URN": 100212, "Web": "www.wentworth.hackney.sch.uk"}, "type": "Feature"}, {"geometry": {"coordinates": [-0.062477, 51.548765], "type": "Point"}, "properties": {"Address": "Sigdon Road, E8 1AS", "EstablishmentName": "Amherst Primary School", "NO2_conc": 41.86215, "NumberOfPupils": "", "PM25_conc": 14.00685, "Tel": 2072544090.0, "URN": 100216, "Web": ""}, "type": "Feature"}, {"geometry": {"coordinates": [-0.065188, 51.558297], "type": "Point"}, "properties": {"Address": "Benthal Road, N16 7AU", "EstablishmentName": "Benthal Primary School Infant Department", "NO2_conc": 37.80419000000001, "NumberOfPupils": "", "PM25_conc": 13.65475, "Tel": 2089859310.0, "URN": 100217, "Web": ""}, "type": "Feature"}, {"geometry": {"coordinates": [-0.044839, 51.546035], "type": "Point"}, "properties": {"Address": "Anderson Road, E9 6HB", "EstablishmentName": "Berger Primary School", "NO2_conc": 39.2312, "NumberOfPupils": 468.0, "PM25_conc": 13.72437, "Tel": 2089856280.0, "URN": 100218, "Web": "www.berger.hackney.sch.uk"}, "type": "Feature"}, {"geometry": {"coordinates": [-0.081031, 51.533909], "type": "Point"}, "properties": {"Address": "Ivy Street, N1 5JD", "EstablishmentName": "Burbage Infants' School", "NO2_conc": 42.09373, "NumberOfPupils": "", "PM25_conc": 14.17434, "Tel": 2077394936.0, "URN": 100220, "Web": ""}, "type": "Feature"}, {"geometry": {"coordinates": [-0.07413, 51.549137], "type": "Point"}, "properties": {"Address": "Colvestone Crescent, E8 2LG", "EstablishmentName": "Colvestone Primary School", "NO2_conc": 40.9465, "NumberOfPupils": 210.0, "PM25_conc": 13.991129999999998, "Tel": 2072541143.0, "URN": 100221, "Web": "www.colvestone.hackney.sch.uk/"}, "type": "Feature"}, {"geometry": {"coordinates": [-0.064342, 51.575162], "type": "Point"}, "properties": {"Address": "Castlewood Road, N16 6DH", "EstablishmentName": "Craven Park School", "NO2_conc": 35.76517, "NumberOfPupils": "", "PM25_conc": 13.20849, "Tel": 2088009007.0, "URN": 100222, "Web": ""}, "type": "Feature"}, {"geometry": {"coordinates": [-0.037989, 51.552719], "type": "Point"}, "properties": {"Address": "Daubeney Road, E5 0EG", "EstablishmentName": "Daubeney Primary School", "NO2_conc": 37.15103, "NumberOfPupils": 630.0, "PM25_conc": 13.49079, "Tel": 2089854380.0, "URN": 100223, "Web": "www.daubeney.hackney.sch.uk"}, "type": "Feature"}, {"geometry": {"coordinates": [-0.079712, 51.545712], "type": "Point"}, "properties": {"Address": "80 Tottenham Road, N1 4BS", "EstablishmentName": "De Beauvoir Primary School", "NO2_conc": 41.2571, "NumberOfPupils": 249.0, "PM25_conc": 14.03387, "Tel": 2072542517.0, "URN": 100224, "Web": "www.debeauvoir.hackney.sch.uk/"}, "type": "Feature"}, {"geometry": {"coordinates": [-0.025971, 51.545782], "type": "Point"}, "properties": {"Address": "Berkshire Road, E9 5ND", "EstablishmentName": "Gainsborough Primary School", "NO2_conc": 39.27451, "NumberOfPupils": 346.0, "PM25_conc": 13.857970000000002, "Tel": 2089854622.0, "URN": 100225, "Web": "www.gainsborough.hackney.sch.uk/"}, "type": "Feature"}, {"geometry": {"coordinates": [-0.062605, 51.542364], "type": "Point"}, "properties": {"Address": "Gayhurst Road, E8 3EN", "EstablishmentName": "Gayhurst Infants' School", "NO2_conc": 39.19866, "NumberOfPupils": "", "PM25_conc": 13.78253, "Tel": 2072544158.0, "URN": 100227, "Web": ""}, "type": "Feature"}, {"geometry": {"coordinates": [-0.072958, 51.535584], "type": "Point"}, "properties": {"Address": "Laburnum Street, E2 8BA", "EstablishmentName": "Laburnum Primary School", "NO2_conc": 41.25578, "NumberOfPupils": "", "PM25_conc": 14.036170000000002, "Tel": 2077393719.0, "URN": 100228, "Web": ""}, "type": "Feature"}, {"geometry": {"coordinates": [-0.045747, 51.536626], "type": "Point"}, "properties": {"Address": "Rutland Road, E9 7JS", "EstablishmentName": "Lauriston School", "NO2_conc": 39.33289, "NumberOfPupils": 446.0, "PM25_conc": 13.75065, "Tel": 2089856331.0, "URN": 100229, "Web": "www.lauriston.hackney.sch.uk"}, "type": "Feature"}, {"geometry": {"coordinates": [-0.060051, 51.537304], "type": "Point"}, "properties": {"Address": "Westgate Street, E8 3RL", "EstablishmentName": "London Fields Primary School", "NO2_conc": 41.03942, "NumberOfPupils": 446.0, "PM25_conc": 13.95258, "Tel": 2072544330.0, "URN": 100230, "Web": "www.londonfields.hackney.sch.uk"}, "type": "Feature"}, {"geometry": {"coordinates": [-0.050952, 51.555876], "type": "Point"}, "properties": {"Address": "Hilsea Street, E5 0SH", "EstablishmentName": "Millfields Community School", "NO2_conc": 37.70468, "NumberOfPupils": 670.0, "PM25_conc": 13.48496, "Tel": 2089857898.0, "URN": 100231, "Web": "http://www.millfields.hackney.sch.uk/"}, "type": "Feature"}, {"geometry": {"coordinates": [-0.050285, 51.546504], "type": "Point"}, "properties": {"Address": "Chatham Place, E9 6LL", "EstablishmentName": "Morningside Primary School", "NO2_conc": 40.49738, "NumberOfPupils": 472.0, "PM25_conc": 13.8198, "Tel": 2089855382.0, "URN": 100232, "Web": "www.morningside.hackney.sch.uk"}, "type": "Feature"}, {"geometry": {"coordinates": [-0.064076, 51.562415], "type": "Point"}, "properties": {"Address": "Northwold Road, E5 8RN", "EstablishmentName": "Northwold Primary School", "NO2_conc": 37.61849, "NumberOfPupils": "", "PM25_conc": 13.56929, "Tel": 2088066352.0, "URN": 100233, "Web": "www.northwoldschool.com"}, "type": "Feature"}, {"geometry": {"coordinates": [-0.049056, 51.540845], "type": "Point"}, "properties": {"Address": "Holcroft Road, E9 7BB", "EstablishmentName": "Orchard Primary School", "NO2_conc": 41.38177, "NumberOfPupils": 634.0, "PM25_conc": 13.93222, "Tel": 2089857785.0, "URN": 100234, "Web": "www.orchard.hackney.sch.uk/"}, "type": "Feature"}, {"geometry": {"coordinates": [-0.071748, 51.539287], "type": "Point"}, "properties": {"Address": "Queensbridge Road, E8 4ET", "EstablishmentName": "Queensbridge Primary School", "NO2_conc": 41.00614, "NumberOfPupils": 505.0, "PM25_conc": 14.02973, "Tel": 2072541186.0, "URN": 100235, "Web": "www.queensbridge.hackney.sch.uk"}, "type": "Feature"}, {"geometry": {"coordinates": [-0.074697, 51.533319], "type": "Point"}, "properties": {"Address": "Ormsby Street, E2 8JG", "EstablishmentName": "Randal Cremer Primary School", "NO2_conc": 41.83681, "NumberOfPupils": 355.0, "PM25_conc": 14.09923, "Tel": 2077398162.0, "URN": 100236, "Web": "www.randalcremer.hackney.sch.uk/"}, "type": "Feature"}, {"geometry": {"coordinates": [-0.046528, 51.554418], "type": "Point"}, "properties": {"Address": "Rushmore Road, E5 0EY", "EstablishmentName": "Rushmore Infants' School", "NO2_conc": 37.43782, "NumberOfPupils": "", "PM25_conc": 13.45594, "Tel": 2089851142.0, "URN": 100238, "Web": ""}, "type": "Feature"}, {"geometry": {"coordinates": [-0.077597, 51.552773], "type": "Point"}, "properties": {"Address": "Princess May Road, N16 8DF", "EstablishmentName": "Princess May Primary School", "NO2_conc": 38.91651, "NumberOfPupils": 371.0, "PM25_conc": 13.84706, "Tel": 2072541589.0, "URN": 100239, "Web": "www.princessmay.hackney.sch.uk/"}, "type": "Feature"}, {"geometry": {"coordinates": [-0.065947, 51.533958], "type": "Point"}, "properties": {"Address": "Audrey Street, E2 8QH", "EstablishmentName": "Sebright School", "NO2_conc": 40.32648, "NumberOfPupils": 424.0, "PM25_conc": 13.93646, "Tel": 2077396531.0, "URN": 100240, "Web": "http://www.sebright.hackney.sch.uk/"}, "type": "Feature"}, {"geometry": {"coordinates": [-0.07276, 51.553233], "type": "Point"}, "properties": {"Address": "Shacklewell Row, E8 2EA", "EstablishmentName": "Shacklewell Primary School", "NO2_conc": 38.96202, "NumberOfPupils": 457.0, "PM25_conc": 13.81804, "Tel": 2072541415.0, "URN": 100241, "Web": "www.shacklewell.hackney.sch.uk/"}, "type": "Feature"}, {"geometry": {"coordinates": [-0.05363, 51.563438], "type": "Point"}, "properties": {"Address": "Detmold Road, E5 9NL", "EstablishmentName": "Southwold Primary School", "NO2_conc": 36.62423, "NumberOfPupils": 389.0, "PM25_conc": 13.35631, "Tel": 2088065201.0, "URN": 100242, "Web": "www.southwold.hackney.sch.uk/"}, "type": "Feature"}, {"geometry": {"coordinates": [-0.0912, 51.53313], "type": "Point"}, "properties": {"Address": "Forston Street, N1 7HA", "EstablishmentName": "Thomas Fairchild Community School", "NO2_conc": 42.54655, "NumberOfPupils": 342.0, "PM25_conc": 14.32169, "Tel": 2072539469.0, "URN": 100243, "Web": "http://www.thomasfairchild.hackney.sch.uk/"}, "type": "Feature"}, {"geometry": {"coordinates": [-0.066353, 51.569278], "type": "Point"}, "properties": {"Address": "Oldhill Street, N16 6LR", "EstablishmentName": "Tyssen Community Primary School", "NO2_conc": 36.50825, "NumberOfPupils": 403.0, "PM25_conc": 13.34535, "Tel": 2088064130.0, "URN": 100244, "Web": "http://www.tyssen.hackney.sch.uk/"}, "type": "Feature"}, {"geometry": {"coordinates": [-0.085857, 51.535022], "type": "Point"}, "properties": {"Address": "Bridport Place, N1 5JN", "EstablishmentName": "Shoreditch Park Primary School", "NO2_conc": 41.65769, "NumberOfPupils": 408.0, "PM25_conc": 14.15047, "Tel": 2077397973.0, "URN": 100245, "Web": "www.shoreditchpark.hackney.sch.uk"}, "type": "Feature"}, {"geometry": {"coordinates": [-0.074951, 51.561803], "type": "Point"}, "properties": {"Address": "Stoke Newington Church Street, N16 0NX", "EstablishmentName": "William Patten Infants' School", "NO2_conc": 40.93026, "NumberOfPupils": "", "PM25_conc": 14.13919, "Tel": 2072544014.0, "URN": 100247, "Web": ""}, "type": "Feature"}, {"geometry": {"coordinates": [-0.090961, 51.57362], "type": "Point"}, "properties": {"Address": "Woodberry Grove, N4 1SY", "EstablishmentName": "Woodberry Down Community Primary School", "NO2_conc": 37.50079, "NumberOfPupils": 693.0, "PM25_conc": 13.386629999999998, "Tel": 2088005758.0, "URN": 100248, "Web": "www.woodberrydown.hackney.sch.uk/"}, "type": "Feature"}, {"geometry": {"coordinates": [-0.090961, 51.57362], "type": "Point"}, "properties": {"Address": "Woodberry Grove, N4 1SY", "EstablishmentName": "Woodberry Down Community Primary School", "NO2_conc": 37.50079, "NumberOfPupils": "", "PM25_conc": 13.386629999999998, "Tel": 2088005758.0, "URN": 100249, "Web": ""}, "type": "Feature"}, {"geometry": {"coordinates": [-0.035298, 51.553592], "type": "Point"}, "properties": {"Address": "Kingsmead Way, E9 5PP", "EstablishmentName": "Kingsmead Primary School", "NO2_conc": 36.41947, "NumberOfPupils": 237.0, "PM25_conc": 13.34528, "Tel": 2089855779.0, "URN": 100250, "Web": "http://www.kingsmead.hackney.sch.uk/"}, "type": "Feature"}, {"geometry": {"coordinates": [-0.082075, 51.570453], "type": "Point"}, "properties": {"Address": "Fairholt Road, N16 5ED", "EstablishmentName": "Sir Thomas Abney School", "NO2_conc": 36.45135, "NumberOfPupils": 369.0, "PM25_conc": 13.37816, "Tel": 2088001411.0, "URN": 100251, "Web": "www.sirthomasabney.hackney.sch.uk/"}, "type": "Feature"}, {"geometry": {"coordinates": [-0.083561, 51.55501], "type": "Point"}, "properties": {"Address": "92 Albion Road, N16 9PD", "EstablishmentName": "Grasmere Primary School", "NO2_conc": 38.94555, "NumberOfPupils": 232.0, "PM25_conc": 13.82098, "Tel": 2072544564.0, "URN": 100252, "Web": "www.grasmere.hackney.sch.uk"}, "type": "Feature"}, {"geometry": {"coordinates": [-0.065941, 51.56607], "type": "Point"}, "properties": {"Address": "Filey Avenue, N16 6NR", "EstablishmentName": "Jubilee Primary School", "NO2_conc": 36.70034, "NumberOfPupils": 447.0, "PM25_conc": 13.44668, "Tel": 2088065446.0, "URN": 100253, "Web": "http://www.jubilee.hackney.sch.uk/"}, "type": "Feature"}, {"geometry": {"coordinates": [-0.064488, 51.556793], "type": "Point"}, "properties": {"Address": "Tiger Way, E5 8NA", "EstablishmentName": "Nightingale Primary School", "NO2_conc": 37.95229000000001, "NumberOfPupils": 224.0, "PM25_conc": 13.65949, "Tel": 2089854259.0, "URN": 100254, "Web": "www.nightingale.hackney.sch.uk/"}, "type": "Feature"}, {"geometry": {"coordinates": [-0.057814, 51.55733], "type": "Point"}, "properties": {"Address": "Ferron Road, E5 8DN", "EstablishmentName": "Baden-Powell School", "NO2_conc": 38.31403, "NumberOfPupils": 229.0, "PM25_conc": 13.61516, "Tel": 2089856176.0, "URN": 100255, "Web": "www.baden-powell.hackney.sch.uk/"}, "type": "Feature"}, {"geometry": {"coordinates": [-0.054073, 51.567258], "type": "Point"}, "properties": {"Address": "Harrington Hill, E5 9EY", "EstablishmentName": "Harrington Hill Primary School", "NO2_conc": 35.88537, "NumberOfPupils": 348.0, "PM25_conc": 13.20302, "Tel": 2088067275.0, "URN": 100256, "Web": "www.harringtonhill.hackney.sch.uk/"}, "type": "Feature"}, {"geometry": {"coordinates": [-0.07499, 51.570112], "type": "Point"}, "properties": {"Address": "Dunsmure Road, N16 5PU", "EstablishmentName": "Holmleigh Primary School", "NO2_conc": 37.19897, "NumberOfPupils": 226.0, "PM25_conc": 13.48809, "Tel": 2088027420.0, "URN": 100257, "Web": "www.holmleigh.hackney.sch.uk/"}, "type": "Feature"}, {"geometry": {"coordinates": [-0.083132, 51.564194], "type": "Point"}, "properties": {"Address": "Grazebrook Primary School, N16 0QP", "EstablishmentName": "Grazebrook Primary School", "NO2_conc": 37.19963, "NumberOfPupils": 468.0, "PM25_conc": 13.58302, "Tel": 2088024051.0, "URN": 100258, "Web": "www.grazebrook.hackney.sch.uk/"}, "type": "Feature"}, {"geometry": {"coordinates": [-0.099313, 51.565068], "type": "Point"}, "properties": {"Address": "Queen's Drive, N4 2HQ", "EstablishmentName": "Parkwood Primary School", "NO2_conc": 38.10921, "NumberOfPupils": 223.0, "PM25_conc": 13.56059, "Tel": 2088025366.0, "URN": 100259, "Web": "www.parkwood.hackney.sch.uk/"}, "type": "Feature"}, {"geometry": {"coordinates": [-0.065188, 51.558297], "type": "Point"}, "properties": {"Address": "Benthal Road, N16 7AU", "EstablishmentName": "Benthal Primary School", "NO2_conc": 37.80419000000001, "NumberOfPupils": 358.0, "PM25_conc": 13.65475, "Tel": 2089859310.0, "URN": 100260, "Web": "www.benthal.hackney.sch.uk/"}, "type": "Feature"}, {"geometry": {"coordinates": [-0.050484, 51.547586], "type": "Point"}, "properties": {"Address": "Mehetabel Road, E9 6DU", "EstablishmentName": "Rams Episcopal Church of England Primary School", "NO2_conc": 41.50682000000001, "NumberOfPupils": "", "PM25_conc": 13.89755, "Tel": 2089852045.0, "URN": 100262, "Web": ""}, "type": "Feature"}, {"geometry": {"coordinates": [-0.072961, 51.544387], "type": "Point"}, "properties": {"Address": "Beechwood Road, E8 3DY", "EstablishmentName": "Holy Trinity Church of England Primary School", "NO2_conc": 40.52081, "NumberOfPupils": 286.0, "PM25_conc": 13.96558, "Tel": 2072541010.0, "URN": 100263, "Web": "www.holytrinity.hackney.sch.uk/"}, "type": "Feature"}, {"geometry": {"coordinates": [-0.080437, 51.544942], "type": "Point"}, "properties": {"Address": "Buckingham Road, N1 4JB", "EstablishmentName": "Our Lady and St Joseph Catholic Primary School", "NO2_conc": 40.50867, "NumberOfPupils": 221.0, "PM25_conc": 13.98296, "Tel": 2072547353.0, "URN": 100264, "Web": "http://www.olsjschool.net/"}, "type": "Feature"}, {"geometry": {"coordinates": [-0.08404, 51.530909], "type": "Point"}, "properties": {"Address": "Crondall Street, N1 6JG", "EstablishmentName": "St John the Baptist Voluntary Aided Church of England Primary School", "NO2_conc": 44.08804, "NumberOfPupils": 356.0, "PM25_conc": 14.43901, "Tel": 2077394902.0, "URN": 100266, "Web": "www.st-john.hackney.sch.uk"}, "type": "Feature"}, {"geometry": {"coordinates": [-0.079353, 51.552873], "type": "Point"}, "properties": {"Address": "Wordsworth Road, N16 8DD", "EstablishmentName": "St Matthias Church of England Primary School", "NO2_conc": 38.54931, "NumberOfPupils": 250.0, "PM25_conc": 13.80437, "Tel": 2072541148.0, "URN": 100267, "Web": ""}, "type": "Feature"}, {"geometry": {"coordinates": [-0.080613, 51.528416], "type": "Point"}, "properties": {"Address": "43 Hoxton Street, N1 6QN", "EstablishmentName": "St Monica's Roman Catholic Primary School", "NO2_conc": 43.52935, "NumberOfPupils": 230.0, "PM25_conc": 14.365620000000002, "Tel": 2077395824.0, "URN": 100268, "Web": "www.stmonicasprimaryhackney.co.uk/"}, "type": "Feature"}, {"geometry": {"coordinates": [-0.065494, 51.537493], "type": "Point"}, "properties": {"Address": "57a Brougham Rd, E8 4PB", "EstablishmentName": "St. Paul's With St. Michael's CofE Primary School", "NO2_conc": 39.62451, "NumberOfPupils": 209.0, "PM25_conc": 13.86015, "Tel": 2072541927.0, "URN": 100269, "Web": "www.spsm.hackney.sch.uk/"}, "type": "Feature"}, {"geometry": {"coordinates": [-0.050156, 51.540081], "type": "Point"}, "properties": {"Address": "Kingshold Road, E9 7JF", "EstablishmentName": "St John of Jerusalem Church of England Primary School", "NO2_conc": 40.45294000000001, "NumberOfPupils": 195.0, "PM25_conc": 13.85629, "Tel": 2089850730.0, "URN": 100270, "Web": "www.st-johnjerusalem.hackney.sch.uk/"}, "type": "Feature"}, {"geometry": {"coordinates": [-0.081511, 51.562261], "type": "Point"}, "properties": {"Address": "Barn Street, N16 0JT", "EstablishmentName": "St Mary's Church of England Primary School, Stoke Newington", "NO2_conc": 38.72361, "NumberOfPupils": 203.0, "PM25_conc": 13.8139, "Tel": 2088002645.0, "URN": 100271, "Web": "www.st-marys.hackney.sch.uk/"}, "type": "Feature"}, {"geometry": {"coordinates": [-0.084898, 51.564744], "type": "Point"}, "properties": {"Address": "63-67 Lordship Road, N16 0QJ", "EstablishmentName": "Avigdor Primary School", "NO2_conc": 37.54942, "NumberOfPupils": "", "PM25_conc": 13.56639, "Tel": 2088008339.0, "URN": 100272, "Web": ""}, "type": "Feature"}, {"geometry": {"coordinates": [-0.037982, 51.545507], "type": "Point"}, "properties": {"Address": "Ballance Road, E9 5SR", "EstablishmentName": "Saint Dominic Roman Catholic Infant School", "NO2_conc": 39.92512, "NumberOfPupils": "", "PM25_conc": 13.86386, "Tel": 2089850995.0, "URN": 100273, "Web": ""}, "type": "Feature"}, {"geometry": {"coordinates": [-0.062514, 51.558765], "type": "Point"}, "properties": {"Address": "Kenninghall Road, E5 8BS", "EstablishmentName": "St Scholastica's Catholic Primary School", "NO2_conc": 38.55047, "NumberOfPupils": 200.0, "PM25_conc": 13.70682, "Tel": 2089853466.0, "URN": 100274, "Web": "www.st-scholasticas.com"}, "type": "Feature"}, {"geometry": {"coordinates": [-0.068481, 51.565698], "type": "Point"}, "properties": {"Address": "75 Cazenove Road, N16 6PD", "EstablishmentName": "Simon Marks Jewish Primary School", "NO2_conc": 37.43573, "NumberOfPupils": 114.0, "PM25_conc": 13.56042, "Tel": 2088066048.0, "URN": 100275, "Web": "www.simonmarks.hackney.sch.uk/"}, "type": "Feature"}, {"geometry": {"coordinates": [-0.064369, 51.566035], "type": "Point"}, "properties": {"Address": "111-115 Cazenove Road, N16 6AX", "EstablishmentName": "Talmud Torah Yetev Lev", "NO2_conc": 36.48318, "NumberOfPupils": 984.0, "PM25_conc": 13.39519, "Tel": 2088063834.0, "URN": 100289, "Web": ""}, "type": "Feature"}, {"geometry": {"coordinates": [-0.082249, 51.574557], "type": "Point"}, "properties": {"Address": "71, 75-81 Amhurst Park, N16 5DL", "EstablishmentName": "Bnois Jerusalem Girls School", "NO2_conc": 40.12514, "NumberOfPupils": 840.0, "PM25_conc": 13.72258, "Tel": 2088005781.0, "URN": 100291, "Web": ""}, "type": "Feature"}, {"geometry": {"coordinates": [-0.079956, 51.57451], "type": "Point"}, "properties": {"Address": "51-57 Amhurst Park, N16 5DL", "EstablishmentName": "Beis Rochel d'Satmar Girls' School", "NO2_conc": 37.93606, "NumberOfPupils": 1800.0, "PM25_conc": 13.49181, "Tel": 2088009060.0, "URN": 100293, "Web": ""}, "type": "Feature"}, {"geometry": {"coordinates": [-0.065706, 51.572604], "type": "Point"}, "properties": {"Address": "1 Belz Terrace, E5 9SN", "EstablishmentName": "Talmud Torah Machzikei Hadass School", "NO2_conc": 36.84332, "NumberOfPupils": 612.0, "PM25_conc": 13.32802, "Tel": 2088006599.0, "URN": 100294, "Web": ""}, "type": "Feature"}, {"geometry": {"coordinates": [-0.070787, 51.566779], "type": "Point"}, "properties": {"Address": "93 Alkham Road, N16 6XD", "EstablishmentName": "Beis Malka Girls' School", "NO2_conc": 37.55458, "NumberOfPupils": 583.0, "PM25_conc": 13.563629999999998, "Tel": 2088062070.0, "URN": 100295, "Web": ""}, "type": "Feature"}, {"geometry": {"coordinates": [-0.06835, 51.574239], "type": "Point"}, "properties": {"Address": "87 Egerton Road, N16 6UE", "EstablishmentName": "Talmud Torah Bobov Primary School", "NO2_conc": 36.61142, "NumberOfPupils": 244.0, "PM25_conc": 13.29544, "Tel": 2088091025.0, "URN": 100298, "Web": ""}, "type": "Feature"}, {"geometry": {"coordinates": [-0.081513, 51.568043], "type": "Point"}, "properties": {"Address": "14 Heathland Road, N16 5NH", "EstablishmentName": "T T T Y Y School", "NO2_conc": 37.0616, "NumberOfPupils": 164.0, "PM25_conc": 13.50576, "Tel": 2088021348.0, "URN": 100299, "Web": ""}, "type": "Feature"}, {"geometry": {"coordinates": [-0.018419, 51.499505], "type": "Point"}, "properties": {"Address": "Unit C, E14 9XP", "EstablishmentName": "River House Montessori School", "NO2_conc": 37.7714, "NumberOfPupils": 308.0, "PM25_conc": 13.5449, "Tel": 2075389886.0, "URN": 100303, "Web": ""}, "type": "Feature"}, {"geometry": {"coordinates": [-0.05972, 51.555949], "type": "Point"}, "properties": {"Address": "Tiger Way, E5 8QP", "EstablishmentName": "Downsview School", "NO2_conc": 38.05046, "NumberOfPupils": "", "PM25_conc": 13.69595, "Tel": 2089856833.0, "URN": 100308, "Web": ""}, "type": "Feature"}, {"geometry": {"coordinates": [-0.18084, 51.550084], "type": "Point"}, "properties": {"Address": "Kenworthy Road, E9 5RB", "EstablishmentName": "Ickburgh School", "NO2_conc": 39.47503, "NumberOfPupils": 108.0, "PM25_conc": 13.78329, "Tel": 2088064638.0, "URN": 100312, "Web": "www.ickburgh.org.uk"}, "type": "Feature"}, {"geometry": {"coordinates": [-0.232425, 51.510848], "type": "Point"}, "properties": {"Address": "Australia Road, W12 7PH", "EstablishmentName": "Randolph Beresford Early Years Centre", "NO2_conc": 38.74817, "NumberOfPupils": 141.0, "PM25_conc": 13.51153, "Tel": 2087437339.0, "URN": 100315, "Web": ""}, "type": "Feature"}, {"geometry": {"coordinates": [-0.234412, 51.50193], "type": "Point"}, "properties": {"Address": "14 Cathnor Road, W12 9JA", "EstablishmentName": "Vanessa Nursery School", "NO2_conc": 39.11205, "NumberOfPupils": 96.0, "PM25_conc": 13.68615, "Tel": 2087438196.0, "URN": 100316, "Web": ""}, "type": "Feature"}, {"geometry": {"coordinates": [-0.213625, 51.492236], "type": "Point"}, "properties": {"Address": "Gliddon Road, W14 9BH", "EstablishmentName": "James Lee Nursery School", "NO2_conc": 41.06744000000001, "NumberOfPupils": 56.0, "PM25_conc": 13.94055, "Tel": 2087418877.0, "URN": 100317, "Web": "www.jameslee.lbhf.sch.uk"}, "type": "Feature"}, {"geometry": {"coordinates": [-0.214435, 51.484416], "type": "Point"}, "properties": {"Address": "50 Paynes Walk, W6 8PF", "EstablishmentName": "Bayonne Nursery School", "NO2_conc": 38.12553, "NumberOfPupils": 74.0, "PM25_conc": 13.60905, "Tel": 2073855366.0, "URN": 100318, "Web": "www.bayonne.lbhf.sch.uk"}, "type": "Feature"}, {"geometry": {"coordinates": [-0.219207, 51.499821], "type": "Point"}, "properties": {"Address": "Addison Gardens, W14 0DT", "EstablishmentName": "Addison Primary School", "NO2_conc": 39.70895, "NumberOfPupils": 351.0, "PM25_conc": 13.85278, "Tel": 2076035333.0, "URN": 100321, "Web": "www.addisonprimary.org/"}, "type": "Feature"}, {"geometry": {"coordinates": [-0.209358, 51.494896], "type": "Point"}, "properties": {"Address": "Avonmore Road, W14 8SH", "EstablishmentName": "Avonmore Primary School", "NO2_conc": 40.50731, "NumberOfPupils": 211.0, "PM25_conc": 13.86352, "Tel": 2076039750.0, "URN": 100322, "Web": "www.avonmore.lbhf.sch.uk/"}, "type": "Feature"}, {"geometry": {"coordinates": [-0.232309, 51.515324], "type": "Point"}, "properties": {"Address": "Bentworth Road, W12 7AJ", "EstablishmentName": "Bentworth Primary School", "NO2_conc": 42.50954, "NumberOfPupils": "", "PM25_conc": 13.82853, "Tel": 2087432527.0, "URN": 100323, "Web": ""}, "type": "Feature"}, {"geometry": {"coordinates": [-0.232834, 51.499901], "type": "Point"}, "properties": {"Address": "Dalling Road, W6 0BA", "EstablishmentName": "Brackenbury Primary School", "NO2_conc": 38.9255, "NumberOfPupils": 457.0, "PM25_conc": 13.7037, "Tel": 2087433074.0, "URN": 100324, "Web": "www.brackenbury.lbhf.sch.uk"}, "type": "Feature"}, {"geometry": {"coordinates": [-0.229806, 51.511843], "type": "Point"}, "properties": {"Address": "Australia Road, W12 7PT", "EstablishmentName": "Canberra Primary School", "NO2_conc": 39.17144, "NumberOfPupils": "", "PM25_conc": 13.54798, "Tel": 2087432514.0, "URN": 100325, "Web": ""}, "type": "Feature"}, {"geometry": {"coordinates": [-0.228838, 51.504112], "type": "Point"}, "properties": {"Address": "Coverdale Road, W12 8JJ", "EstablishmentName": "Miles Coverdale Primary School", "NO2_conc": 39.04887, "NumberOfPupils": 240.0, "PM25_conc": 13.6844, "Tel": 2087435847.0, "URN": 100326, "Web": "www.milescoverdaleprimary.co.uk/"}, "type": "Feature"}, {"geometry": {"coordinates": [-0.234882, 51.506542], "type": "Point"}, "properties": {"Address": "Ellerslie Road, W12 7BP", "EstablishmentName": "Ellerslie Primary School", "NO2_conc": 40.12524000000001, "NumberOfPupils": "", "PM25_conc": 13.68901, "Tel": 2087434545.0, "URN": 100327, "Web": ""}, "type": "Feature"}, {"geometry": {"coordinates": [-0.235479, 51.494833], "type": "Point"}, "properties": {"Address": "Dalling Road, W6 0UD", "EstablishmentName": "Flora Gardens Primary School", "NO2_conc": 38.81555, "NumberOfPupils": 210.0, "PM25_conc": 13.71427, "Tel": 2087482566.0, "URN": 100328, "Web": "www.floragardens.lbhf.sch.uk"}, "type": "Feature"}, {"geometry": {"coordinates": [-0.197979, 51.483535], "type": "Point"}, "properties": {"Address": "Halford Road, SW6 1JU", "EstablishmentName": "Fulham Primary School", "NO2_conc": 39.51279, "NumberOfPupils": "", "PM25_conc": 13.914, "Tel": 2073850535.0, "URN": 100329, "Web": "www.fulhampri.lbhf.sch.uk"}, "type": "Feature"}, {"geometry": {"coordinates": [-0.205442, 51.472085], "type": "Point"}, "properties": {"Address": "New King's Road, SW6 4LY", "EstablishmentName": "New King's Primary School", "NO2_conc": 38.52207, "NumberOfPupils": "", "PM25_conc": 13.71924, "Tel": 2077362318.0, "URN": 100330, "Web": ""}, "type": "Feature"}, {"geometry": {"coordinates": [-0.235336, 51.531709], "type": "Point"}, "properties": {"Address": "Valliere Road, NW10 6AL", "EstablishmentName": "Kenmont Primary School", "NO2_conc": 40.35831, "NumberOfPupils": 228.0, "PM25_conc": 13.60007, "Tel": 2089694497.0, "URN": 100331, "Web": "www.kenmont-primary.org/"}, "type": "Feature"}, {"geometry": {"coordinates": [-0.188859, 51.472703], "type": "Point"}, "properties": {"Address": "Gilstead Road, SW6 2LG", "EstablishmentName": "Langford Primary School", "NO2_conc": 38.54675, "NumberOfPupils": "", "PM25_conc": 13.71454, "Tel": 2077364045.0, "URN": 100332, "Web": "www.langford.lbhf.sch.uk"}, "type": "Feature"}, {"geometry": {"coordinates": [-0.22486, 51.498936], "type": "Point"}, "properties": {"Address": "Lena Gardens, W6 7PZ", "EstablishmentName": "Lena Gardens Primary School", "NO2_conc": 38.79889, "NumberOfPupils": "", "PM25_conc": 13.75273, "Tel": 2076034043.0, "URN": 100333, "Web": ""}, "type": "Feature"}, {"geometry": {"coordinates": [-0.221164, 51.486182], "type": "Point"}, "properties": {"Address": "Fulham Palace Road, W6 9ER", "EstablishmentName": "Melcombe Primary School", "NO2_conc": 37.767, "NumberOfPupils": 418.0, "PM25_conc": 13.457529999999998, "Tel": 2087487411.0, "URN": 100334, "Web": "www.melcombeprimary.weebly.com/"}, "type": "Feature"}, {"geometry": {"coordinates": [-0.243836, 51.518015], "type": "Point"}, "properties": {"Address": "Mellitus Street, W12 0AS", "EstablishmentName": "Old Oak Primary School", "NO2_conc": 38.14244, "NumberOfPupils": 345.0, "PM25_conc": 13.48163, "Tel": 2087437629.0, "URN": 100335, "Web": "www.oldoakprimary.co.uk/"}, "type": "Feature"}, {"geometry": {"coordinates": [-0.19566, 51.471126], "type": "Point"}, "properties": {"Address": "Clancarty Road, SW6 3AA", "EstablishmentName": "Peterborough Primary School", "NO2_conc": 37.61095, "NumberOfPupils": "", "PM25_conc": 13.67109, "Tel": 2077365863.0, "URN": 100336, "Web": "www.milleniumschools.co.uk"}, "type": "Feature"}, {"geometry": {"coordinates": [-0.221771, 51.479843], "type": "Point"}, "properties": {"Address": "Lysia Street, SW6 6ND", "EstablishmentName": "Queen's Manor School and Special Needs Unit", "NO2_conc": 36.8625, "NumberOfPupils": "", "PM25_conc": 13.30365, "Tel": 2073854343.0, "URN": 100337, "Web": "www.queensmanor.lbhf.sch.uk"}, "type": "Feature"}, {"geometry": {"coordinates": [-0.209634, 51.483066], "type": "Point"}, "properties": {"Address": "Lillie Road, SW6 7LN", "EstablishmentName": "Sir John Lillie Primary School", "NO2_conc": 41.85297, "NumberOfPupils": 332.0, "PM25_conc": 14.13514, "Tel": 2073852107.0, "URN": 100338, "Web": "www.sirjohnlillieprimary.co.uk/"}, "type": "Feature"}, {"geometry": {"coordinates": [-0.19948, 51.470654], "type": "Point"}, "properties": {"Address": "Peterborough Road, SW6 3BN", "EstablishmentName": "Sulivan Primary School", "NO2_conc": 37.42841, "NumberOfPupils": "", "PM25_conc": 13.63205, "Tel": 2077365869.0, "URN": 100339, "Web": "www.sulivanprimaryschool.co.uk/"}, "type": "Feature"}, {"geometry": {"coordinates": [-0.248969, 51.503327], "type": "Point"}, "properties": {"Address": "Cobbold Road, W12 9LB", "EstablishmentName": "Wendell Park Primary School", "NO2_conc": 37.35742, "NumberOfPupils": 435.0, "PM25_conc": 13.37355, "Tel": 2087431372.0, "URN": 100340, "Web": "www.wendellparkprimaryschool.co.uk/"}, "type": "Feature"}, {"geometry": {"coordinates": [-0.238748, 51.511671], "type": "Point"}, "properties": {"Address": "Bryony Road, W12 0SR", "EstablishmentName": "Wormholt Park Primary School", "NO2_conc": 38.49874000000001, "NumberOfPupils": 410.0, "PM25_conc": 13.4759, "Tel": 2087435073.0, "URN": 100341, "Web": "http://www.wormholtparkprimary.co.uk/"}, "type": "Feature"}, {"geometry": {"coordinates": [-0.237443, 51.503667], "type": "Point"}, "properties": {"Address": "Westville Road, W12 9PT", "EstablishmentName": "Greenside Primary School", "NO2_conc": 38.93218, "NumberOfPupils": "", "PM25_conc": 13.62004, "Tel": 2087436421.0, "URN": 100343, "Web": ""}, "type": "Feature"}, {"geometry": {"coordinates": [-0.213619, 51.472858], "type": "Point"}, "properties": {"Address": "Bishops Avenue, SW6 6ED", "EstablishmentName": "All Saints CofE Primary School", "NO2_conc": 37.19181, "NumberOfPupils": 226.0, "PM25_conc": 13.49351, "Tel": 2077362803.0, "URN": 100344, "Web": "www.allsaintsce.lbhf.sch.uk"}, "type": "Feature"}, {"geometry": {"coordinates": [-0.198985, 51.475907], "type": "Point"}, "properties": {"Address": "Basuto Road, SW6 4BL", "EstablishmentName": "Holy Cross RC School", "NO2_conc": 38.33821, "NumberOfPupils": 620.0, "PM25_conc": 13.737379999999998, "Tel": 2077361447.0, "URN": 100345, "Web": "http://www.holycrossfulham.org.uk/"}, "type": "Feature"}, {"geometry": {"coordinates": [-0.209121, 51.477051], "type": "Point"}, "properties": {"Address": "Filmer Road, SW6 6AS", "EstablishmentName": "St Johns Walham Green Church of England Primary School", "NO2_conc": 38.76076, "NumberOfPupils": 384.0, "PM25_conc": 13.817620000000002, "Tel": 2077315454.0, "URN": 100349, "Web": "www.stjohnsce.lbhf.sch.uk"}, "type": "Feature"}, {"geometry": {"coordinates": [-0.215987, 51.4989], "type": "Point"}, "properties": {"Address": "Masbro Road, W14 0LT", "EstablishmentName": "St Mary's Catholic Primary School", "NO2_conc": 39.22144, "NumberOfPupils": 215.0, "PM25_conc": 13.77761, "Tel": 2076037717.0, "URN": 100350, "Web": "www.stmarysrc.lbhf.sch.uk"}, "type": "Feature"}, {"geometry": {"coordinates": [-0.2272, 51.490635], "type": "Point"}, "properties": {"Address": "Worlidge Street, W6 9BP", "EstablishmentName": "St Paul's CofE Primary School", "NO2_conc": 48.06791, "NumberOfPupils": 226.0, "PM25_conc": 14.58789, "Tel": 2087484951.0, "URN": 100351, "Web": "www.stpaulsprimary.org/"}, "type": "Feature"}, {"geometry": {"coordinates": [-0.22763, 51.505542], "type": "Point"}, "properties": {"Address": "Uxbridge Road, W12 8LH", "EstablishmentName": "St Stephen's CofE Primary School", "NO2_conc": 40.91771, "NumberOfPupils": 415.0, "PM25_conc": 13.82928, "Tel": 2087434483.0, "URN": 100353, "Web": "www.ststephensce.lbhf.sch.uk/"}, "type": "Feature"}, {"geometry": {"coordinates": [-0.245263, 51.502642], "type": "Point"}, "properties": {"Address": "35 Gayford Road, W12 9BY", "EstablishmentName": "Good Shepherd RC Primary School", "NO2_conc": 37.81831, "NumberOfPupils": 229.0, "PM25_conc": 13.450220000000002, "Tel": 2087435060.0, "URN": 100354, "Web": "www.goodshepherdrc.lbhf.sch.uk/"}, "type": "Feature"}, {"geometry": {"coordinates": [-0.232703, 51.512219], "type": "Point"}, "properties": {"Address": "1 India Way, W12 7QT", "EstablishmentName": "St John XXIII Catholic Primary School", "NO2_conc": 39.35032, "NumberOfPupils": 298.0, "PM25_conc": 13.55073, "Tel": 2087439428.0, "URN": 100355, "Web": "www.stjohnxxiii.lbhf.sch.uk"}, "type": "Feature"}, {"geometry": {"coordinates": [-0.217968, 51.492428], "type": "Point"}, "properties": {"Address": "Great Church Lane, W6 8DH", "EstablishmentName": "Larmenier RC Infants' School", "NO2_conc": 40.16286, "NumberOfPupils": "", "PM25_conc": 13.81359, "Tel": 2087489444.0, "URN": 100356, "Web": ""}, "type": "Feature"}, {"geometry": {"coordinates": [-0.207325, 51.481349], "type": "Point"}, "properties": {"Address": "Estcourt Road, SW6 7HB", "EstablishmentName": "St Thomas of Canterbury Catholic Primary School", "NO2_conc": 38.69894, "NumberOfPupils": 258.0, "PM25_conc": 13.81233, "Tel": 2073858165.0, "URN": 100357, "Web": "www.stthomasrc.lbhf.sch.uk"}, "type": "Feature"}, {"geometry": {"coordinates": [-0.217848, 51.495871], "type": "Point"}, "properties": {"Address": "59 Brook Green, W6 7BE", "EstablishmentName": "Ecole Francaise de Londres Jacques Prevert", "NO2_conc": 40.56311, "NumberOfPupils": 256.0, "PM25_conc": 13.88861, "Tel": 2076026871.0, "URN": 100371, "Web": "http://www.ecoleprevert.org.uk/"}, "type": "Feature"}, {"geometry": {"coordinates": [-0.201262, 51.47623], "type": "Point"}, "properties": {"Address": "9 Swan Mews, SW6 4QT", "EstablishmentName": "Evergreen Primary School", "NO2_conc": 38.33152000000001, "NumberOfPupils": 79.0, "PM25_conc": 13.74257, "Tel": 2074718283.0, "URN": 100372, "Web": ""}, "type": "Feature"}, {"geometry": {"coordinates": [-0.210707, 51.477741], "type": "Point"}, "properties": {"Address": "159 Munster Road, SW6 6DA", "EstablishmentName": "Sinclair House School", "NO2_conc": 40.22589, "NumberOfPupils": 123.0, "PM25_conc": 13.957, "Tel": 2077369182.0, "URN": 100374, "Web": "https://www.sinclairhouseschool.co.uk/"}, "type": "Feature"}, {"geometry": {"coordinates": [-0.191029, 51.472071], "type": "Point"}, "properties": {"Address": "2 Hazlebury Road, SW6 2NB", "EstablishmentName": "L'Ecole des Petits School", "NO2_conc": 41.2476, "NumberOfPupils": 129.0, "PM25_conc": 14.00795, "Tel": 2073718350.0, "URN": 100375, "Web": "www.lecoledespetits.co.uk"}, "type": "Feature"}, {"geometry": {"coordinates": [-0.236007, 51.492719], "type": "Point"}, "properties": {"Address": "Rivercourt Methodist Church, W6 9JT", "EstablishmentName": "Le Herisson School", "NO2_conc": 42.80682, "NumberOfPupils": 43.0, "PM25_conc": 14.10956, "Tel": 2085637664.0, "URN": 100376, "Web": "leherissonschool.co.uk"}, "type": "Feature"}, {"geometry": {"coordinates": [-0.242614, 51.507071], "type": "Point"}, "properties": {"Address": "1 Askham Road, W12 0NW", "EstablishmentName": "Queensmill School", "NO2_conc": 39.81424000000001, "NumberOfPupils": 229.0, "PM25_conc": 13.62644, "Tel": 2087408112.0, "URN": 100378, "Web": "www.queensmillschool.com"}, "type": "Feature"}, {"geometry": {"coordinates": [-0.233562, 51.50939], "type": "Point"}, "properties": {"Address": "South Africa Road, W12 7PA", "EstablishmentName": "Jack Tizard School", "NO2_conc": 38.78802, "NumberOfPupils": 68.0, "PM25_conc": 13.5252, "Tel": 2087353590.0, "URN": 100381, "Web": "www.jacktizard.lbhf.sch.uk"}, "type": "Feature"}, {"geometry": {"coordinates": [-0.125776, 51.57205], "type": "Point"}, "properties": {"Address": "Hornsey Rise, N19 3SF", "EstablishmentName": "Margaret McMillan Nursery School", "NO2_conc": 38.47861, "NumberOfPupils": 124.0, "PM25_conc": 13.44145, "Tel": 2072812745.0, "URN": 100384, "Web": ""}, "type": "Feature"}, {"geometry": {"coordinates": [-0.120669, 51.536313], "type": "Point"}, "properties": {"Address": "Yorkway Court, N1 0UH", "EstablishmentName": "Kate Greenaway Nursery School and Children's Centre", "NO2_conc": 43.46284, "NumberOfPupils": 102.0, "PM25_conc": 14.54861, "Tel": 2075274850.0, "URN": 100385, "Web": ""}, "type": "Feature"}, {"geometry": {"coordinates": [-0.113391, 51.566573], "type": "Point"}, "properties": {"Address": "110-112 Tollington Park, N4 3RB", "EstablishmentName": "North Islington Nursery School", "NO2_conc": 38.34423, "NumberOfPupils": 124.0, "PM25_conc": 13.60066, "Tel": 2075274844.0, "URN": 100386, "Web": ""}, "type": "Feature"}, {"geometry": {"coordinates": [-0.113497, 51.550757], "type": "Point"}, "properties": {"Address": "Eden Grove, N7 8EE", "EstablishmentName": "Ring Cross Primary School", "NO2_conc": 39.9492, "NumberOfPupils": "", "PM25_conc": 13.88258, "Tel": 2076075109.0, "URN": 100396, "Web": ""}, "type": "Feature"}, {"geometry": {"coordinates": [-0.101741, 51.562554], "type": "Point"}, "properties": {"Address": "Blackstock Road, N4 2DR", "EstablishmentName": "Ambler Primary School and Children's Centre", "NO2_conc": 40.71405, "NumberOfPupils": 500.0, "PM25_conc": 13.83226, "Tel": 2072264708.0, "URN": 100397, "Web": "www.ambler.islington.sch.uk/"}, "type": "Feature"}, {"geometry": {"coordinates": [-0.100556, 51.544936], "type": "Point"}, "properties": {"Address": "Canonbury Road, N1 2UT", "EstablishmentName": "Canonbury Infants' School", "NO2_conc": 42.41806, "NumberOfPupils": "", "PM25_conc": 14.18229, "Tel": 2072266853.0, "URN": 100399, "Web": ""}, "type": "Feature"}, {"geometry": {"coordinates": [-0.095397, 51.538954], "type": "Point"}, "properties": {"Address": "Popham Road, N1 8RF", "EstablishmentName": "Charles Lamb Primary School", "NO2_conc": 42.17186, "NumberOfPupils": "", "PM25_conc": 14.22701, "Tel": 2072262407.0, "URN": 100400, "Web": ""}, "type": "Feature"}, {"geometry": {"coordinates": [-0.118635, 51.535642], "type": "Point"}, "properties": {"Address": "Treaty St, N1 0WF", "EstablishmentName": "Copenhagen Primary School", "NO2_conc": 42.83529, "NumberOfPupils": 172.0, "PM25_conc": 14.51096, "Tel": 2078375597.0, "URN": 100401, "Web": "www.copenhagen.islington.sch.uk"}, "type": "Feature"}, {"geometry": {"coordinates": [-0.105733, 51.551549], "type": "Point"}, "properties": {"Address": "Arvon Road, N5 1PJ", "EstablishmentName": "Drayton Park Primary School", "NO2_conc": 40.09221, "NumberOfPupils": 303.0, "PM25_conc": 13.91334, "Tel": 2076074142.0, "URN": 100402, "Web": "www.draytonpark.islington.sch.uk/"}, "type": "Feature"}, {"geometry": {"coordinates": [-0.123664, 51.566917], "type": "Point"}, "properties": {"Address": "Sussex Way, N19 4JA", "EstablishmentName": "Duncombe Primary School", "NO2_conc": 38.20114, "NumberOfPupils": 447.0, "PM25_conc": 13.53527, "Tel": 2072725620.0, "URN": 100403, "Web": "www.duncombeprimary.co.uk/"}, "type": "Feature"}, {"geometry": {"coordinates": [-0.090899, 51.541695], "type": "Point"}, "properties": {"Address": "Ecclesbourne Road, N1 3AG", "EstablishmentName": "Ecclesbourne Primary School", "NO2_conc": 41.98017, "NumberOfPupils": "", "PM25_conc": 14.1341, "Tel": 2072266696.0, "URN": 100404, "Web": "office@ecclesbourne.islington.sch.uk"}, "type": "Feature"}, {"geometry": {"coordinates": [-0.100058, 51.560009], "type": "Point"}, "properties": {"Address": "Gillespie Road, N5 1LH", "EstablishmentName": "Gillespie Primary School", "NO2_conc": 41.40763, "NumberOfPupils": 234.0, "PM25_conc": 14.00646, "Tel": 2072266840.0, "URN": 100405, "Web": "www.gillespie.islington.sch.uk"}, "type": "Feature"}, {"geometry": {"coordinates": [-0.119124, 51.559102], "type": "Point"}, "properties": {"Address": "Eburne Road, N7 6AR", "EstablishmentName": "Grafton Primary School", "NO2_conc": 40.41751, "NumberOfPupils": 500.0, "PM25_conc": 13.86863, "Tel": 2072723284.0, "URN": 100406, "Web": "www.graftonschool.co.uk/"}, "type": "Feature"}, {"geometry": {"coordinates": [-0.09859, 51.532944], "type": "Point"}, "properties": {"Address": "Noel Road, N1 8BD", "EstablishmentName": "Hanover Primary School", "NO2_conc": 43.21859, "NumberOfPupils": 322.0, "PM25_conc": 14.50407, "Tel": 2076898949.0, "URN": 100407, "Web": "www.hanover.islington.sch.uk"}, "type": "Feature"}, {"geometry": {"coordinates": [-0.140077, 51.564283], "type": "Point"}, "properties": {"Address": "51 Bredgar Road, N19 5BS", "EstablishmentName": "Hargrave Park Primary School", "NO2_conc": 38.9471, "NumberOfPupils": 387.0, "PM25_conc": 13.57692, "Tel": 2072723989.0, "URN": 100408, "Web": "www.hargravepark.com/"}, "type": "Feature"}, {"geometry": {"coordinates": [-0.104553, 51.544533], "type": "Point"}, "properties": {"Address": "Laycock Street, N1 1SW", "EstablishmentName": "Laycock Primary School", "NO2_conc": 41.99012000000001, "NumberOfPupils": 420.0, "PM25_conc": 14.16761, "Tel": 2072262927.0, "URN": 100411, "Web": "www.laycock.islington.sch.uk/"}, "type": "Feature"}, {"geometry": {"coordinates": [-0.114725, 51.561172], "type": "Point"}, "properties": {"Address": "Hornsey Road, N7 7QT", "EstablishmentName": "Montem Infant School", "NO2_conc": 39.82758, "NumberOfPupils": "", "PM25_conc": 13.83305, "Tel": 2072726556.0, "URN": 100413, "Web": ""}, "type": "Feature"}, {"geometry": {"coordinates": [-0.089696, 51.524275], "type": "Point"}, "properties": {"Address": "40 Bunhill Row, EC1Y 8RX", "EstablishmentName": "Moorfields Primary School", "NO2_conc": 45.04281, "NumberOfPupils": "", "PM25_conc": 14.7499, "Tel": 2072532150.0, "URN": 100414, "Web": ""}, "type": "Feature"}, {"geometry": {"coordinates": [-0.099356, 51.528398], "type": "Point"}, "properties": {"Address": "Moreland Street, EC1V 8BB", "EstablishmentName": "Moreland Primary School", "NO2_conc": 44.46594, "NumberOfPupils": 359.0, "PM25_conc": 14.76644, "Tel": 2072538144.0, "URN": 100415, "Web": "http://www.moreland-islington.co.uk"}, "type": "Feature"}, {"geometry": {"coordinates": [-0.083412, 51.551366], "type": "Point"}, "properties": {"Address": "Matthias Road, N16 8NP", "EstablishmentName": "Newington Green Infant School", "NO2_conc": 39.5812, "NumberOfPupils": "", "PM25_conc": 13.86555, "Tel": 2072543092.0, "URN": 100417, "Web": ""}, "type": "Feature"}, {"geometry": {"coordinates": [-0.114015, 51.558804], "type": "Point"}, "properties": {"Address": "Hornsey Road, N7 6DU", "EstablishmentName": "Pakeman Primary School", "NO2_conc": 41.68093, "NumberOfPupils": 354.0, "PM25_conc": 14.04704, "Tel": 2076072575.0, "URN": 100418, "Web": "www.pakemanprimary.co.uk/"}, "type": "Feature"}, {"geometry": {"coordinates": [-0.108179, 51.534655], "type": "Point"}, "properties": {"Address": "Ritchie Street, N1 0EH", "EstablishmentName": "Angel Primary School", "NO2_conc": 43.33007, "NumberOfPupils": "", "PM25_conc": 14.54652, "Tel": 2078372494.0, "URN": 100419, "Web": ""}, "type": "Feature"}, {"geometry": {"coordinates": [-0.112334, 51.564919], "type": "Point"}, "properties": {"Address": "Lennox Road, N4 3NW", "EstablishmentName": "Poole's Park Infant School", "NO2_conc": 37.71373, "NumberOfPupils": "", "PM25_conc": 13.571420000000002, "Tel": 2072725970.0, "URN": 100421, "Web": ""}, "type": "Feature"}, {"geometry": {"coordinates": [-0.12175, 51.544747], "type": "Point"}, "properties": {"Address": "Brewery Road, N7 9QJ", "EstablishmentName": "Robert Blair School", "NO2_conc": 41.04665, "NumberOfPupils": 252.0, "PM25_conc": 14.09932, "Tel": 2076074115.0, "URN": 100422, "Web": "http://www.robertblairschool.com"}, "type": "Feature"}, {"geometry": {"coordinates": [-0.090264, 51.5386], "type": "Point"}, "properties": {"Address": "Rotherfield Street, N1 3EE", "EstablishmentName": "Rotherfield Infant School", "NO2_conc": 41.50042, "NumberOfPupils": "", "PM25_conc": 14.13974, "Tel": 2072266620.0, "URN": 100424, "Web": ""}, "type": "Feature"}, {"geometry": {"coordinates": [-0.109927, 51.540843], "type": "Point"}, "properties": {"Address": "Thornhill Road, N1 1HX", "EstablishmentName": "Thornhill Primary School", "NO2_conc": 41.39016, "NumberOfPupils": 468.0, "PM25_conc": 14.21512, "Tel": 2076074162.0, "URN": 100425, "Web": "www.thornhill.islington.sch.uk"}, "type": "Feature"}, {"geometry": {"coordinates": [-0.11334, 51.535368], "type": "Point"}, "properties": {"Address": "Half Moon Crescent, N1 0TJ", "EstablishmentName": "Vittoria Primary School", "NO2_conc": 42.57377, "NumberOfPupils": 215.0, "PM25_conc": 14.474279999999998, "Tel": 2078376063.0, "URN": 100426, "Web": "www.vittoria.islington.sch.uk"}, "type": "Feature"}, {"geometry": {"coordinates": [-0.101266, 51.542079], "type": "Point"}, "properties": {"Address": "Upper Street, N1 2GG", "EstablishmentName": "William Tyndale Primary School", "NO2_conc": 42.07841, "NumberOfPupils": "", "PM25_conc": 14.20532, "Tel": 2072266803.0, "URN": 100427, "Web": ""}, "type": "Feature"}, {"geometry": {"coordinates": [-0.11805, 51.53235], "type": "Point"}, "properties": {"Address": "Killick Street, N1 9AZ", "EstablishmentName": "Winton Primary School", "NO2_conc": 44.34503, "NumberOfPupils": 256.0, "PM25_conc": 14.77223, "Tel": 2078376096.0, "URN": 100428, "Web": "www.wintonprimaryschool.com"}, "type": "Feature"}, {"geometry": {"coordinates": [-0.130406, 51.561207], "type": "Point"}, "properties": {"Address": "Foxham Road, N19 4RR", "EstablishmentName": "Yerbury Primary School", "NO2_conc": 37.89983, "NumberOfPupils": 461.0, "PM25_conc": 13.56413, "Tel": 2072726580.0, "URN": 100429, "Web": "www.yerbury.islington.sch.uk"}, "type": "Feature"}, {"geometry": {"coordinates": [-0.129572, 51.554449], "type": "Point"}, "properties": {"Address": "Dalmeny Road, N7 0HJ", "EstablishmentName": "Tufnell Park Primary School", "NO2_conc": 38.43142, "NumberOfPupils": 338.0, "PM25_conc": 13.69761, "Tel": 2076074852.0, "URN": 100430, "Web": "www.tufnellpark.islington.sch.uk/"}, "type": "Feature"}, {"geometry": {"coordinates": [-0.091872, 51.553941], "type": "Point"}, "properties": {"Address": "Highbury New Park, N5 2DP", "EstablishmentName": "Highbury Quadrant Primary School", "NO2_conc": 40.4434, "NumberOfPupils": 365.0, "PM25_conc": 13.97151, "Tel": 2072266531.0, "URN": 100431, "Web": "http://www.highburyquadrantprimary.co.uk"}, "type": "Feature"}, {"geometry": {"coordinates": [-0.124195, 51.573661], "type": "Point"}, "properties": {"Address": "Crouch Hill Park, N8 9EG", "EstablishmentName": "Ashmount Primary School", "NO2_conc": 36.76609000000001, "NumberOfPupils": 437.0, "PM25_conc": 13.28619, "Tel": 2072727145.0, "URN": 100432, "Web": "www.ashmountprimaryschool.co.uk/"}, "type": "Feature"}, {"geometry": {"coordinates": [-0.133406, 51.572504], "type": "Point"}, "properties": {"Address": "Ashmount Road, N19 3BH", "EstablishmentName": "Ashmount Infant School", "NO2_conc": 37.54359, "NumberOfPupils": "", "PM25_conc": 13.3329, "Tel": 2072727145.0, "URN": 100433, "Web": ""}, "type": "Feature"}, {"geometry": {"coordinates": [-0.09338, 51.521673], "type": "Point"}, "properties": {"Address": "101 Whitecross Street, EC1Y 8JA", "EstablishmentName": "Prior Weston Primary School and Children's Centre", "NO2_conc": 45.53366, "NumberOfPupils": 434.0, "PM25_conc": 15.00527, "Tel": 2077864800.0, "URN": 100434, "Web": "www.priorweston.islington.sch.uk"}, "type": "Feature"}, {"geometry": {"coordinates": [-0.126592, 51.548691], "type": "Point"}, "properties": {"Address": "Hungerford Road, N7 9LF", "EstablishmentName": "Hungerford Primary School and Children's Centre", "NO2_conc": 40.62794, "NumberOfPupils": 386.0, "PM25_conc": 13.95996, "Tel": 2076074187.0, "URN": 100435, "Web": "www.hungerfordschool.com"}, "type": "Feature"}, {"geometry": {"coordinates": [-0.113529, 51.550325], "type": "Point"}, "properties": {"Address": "68 Georges Road, N7 8JN", "EstablishmentName": "Sacred Heart Catholic Primary School", "NO2_conc": 39.93239000000001, "NumberOfPupils": 473.0, "PM25_conc": 13.88281, "Tel": 2076073407.0, "URN": 100437, "Web": "http://www.sacredheart.islington.sch.uk/"}, "type": "Feature"}, {"geometry": {"coordinates": [-0.104055, 51.533968], "type": "Point"}, "properties": {"Address": "Duncan Street, N1 8BL", "EstablishmentName": "St John Evangelist RC Primary School", "NO2_conc": 43.45387, "NumberOfPupils": 308.0, "PM25_conc": 14.547529999999998, "Tel": 2072261314.0, "URN": 100438, "Web": "www.stjohnevangelist.islington.sch.uk"}, "type": "Feature"}, {"geometry": {"coordinates": [-0.133046, 51.562625], "type": "Point"}, "properties": {"Address": "Pemberton Gardens, N19 5RR", "EstablishmentName": "St John's Upper Holloway CofE Primary School", "NO2_conc": 39.38173, "NumberOfPupils": 202.0, "PM25_conc": 13.66297, "Tel": 2072722780.0, "URN": 100439, "Web": "www.stjohnsupperholloway.co.uk/"}, "type": "Feature"}, {"geometry": {"coordinates": [-0.141689, 51.568607], "type": "Point"}, "properties": {"Address": "Highgate Hill, N19 5NE", "EstablishmentName": "St Joseph's Catholic Primary School", "NO2_conc": 40.51557, "NumberOfPupils": 468.0, "PM25_conc": 13.61423, "Tel": 2072721270.0, "URN": 100441, "Web": "www.st-josephs.islington.sch.uk"}, "type": "Feature"}, {"geometry": {"coordinates": [-0.091921, 51.526568], "type": "Point"}, "properties": {"Address": "Radnor Street, EC1V 3SJ", "EstablishmentName": "St Luke's CofE Primary School", "NO2_conc": 44.98805, "NumberOfPupils": 232.0, "PM25_conc": 14.66374, "Tel": 2072533880.0, "URN": 100443, "Web": "www.st-lukesislington.co.uk"}, "type": "Feature"}, {"geometry": {"coordinates": [-0.120942, 51.564356], "type": "Point"}, "properties": {"Address": "Sussex Way, N19 4JF", "EstablishmentName": "St Mark's CofE Primary School", "NO2_conc": 38.99657, "NumberOfPupils": 244.0, "PM25_conc": 13.71061, "Tel": 2072725967.0, "URN": 100444, "Web": "www.st-marks.islington.sch.uk/"}, "type": "Feature"}, {"geometry": {"coordinates": [-0.100874, 51.524834], "type": "Point"}, "properties": {"Address": "Compton Street, EC1V 0EU", "EstablishmentName": "St Peter and St Paul RC Primary School", "NO2_conc": 45.09326, "NumberOfPupils": 216.0, "PM25_conc": 14.99375, "Tel": 2072530839.0, "URN": 100447, "Web": "www.stpetersandstpauls.islington.sch.uk/"}, "type": "Feature"}, {"geometry": {"coordinates": [-0.096997, 51.556596], "type": "Point"}, "properties": {"Address": "Northolme Road, N5 2UX", "EstablishmentName": "St Joan of Arc RC Primary School", "NO2_conc": 39.45162, "NumberOfPupils": 437.0, "PM25_conc": 13.78959, "Tel": 2072263920.0, "URN": 100449, "Web": "www.st-joanofarc.islington.sch.uk/"}, "type": "Feature"}, {"geometry": {"coordinates": [-0.115029, 51.566374], "type": "Point"}, "properties": {"Address": "55 Tollington Park, N4 3QW", "EstablishmentName": "Christ The King RC Primary School", "NO2_conc": 37.89357, "NumberOfPupils": 335.0, "PM25_conc": 13.55785, "Tel": 2072725987.0, "URN": 100450, "Web": "www.ctks.co.uk/"}, "type": "Feature"}, {"geometry": {"coordinates": [-0.119033, 51.536475], "type": "Point"}, "properties": {"Address": "Boadicea Street, N1 0UF", "EstablishmentName": "Blessed Sacrament RC Primary School", "NO2_conc": 43.00131, "NumberOfPupils": 193.0, "PM25_conc": 14.5083, "Tel": 2072782187.0, "URN": 100451, "Web": "http://www.blessedsacrament-islington.co.uk/"}, "type": "Feature"}, {"geometry": {"coordinates": [-0.100492, 51.524639], "type": "Point"}, "properties": {"Address": "8 Dallington Street, EC1V 0BW", "EstablishmentName": "Dallington School", "NO2_conc": 45.28872, "NumberOfPupils": 138.0, "PM25_conc": 15.00297, "Tel": 2072512284.0, "URN": 100462, "Web": "www.dallingtonschool.co.uk"}, "type": "Feature"}, {"geometry": {"coordinates": [-0.118657, 51.572169], "type": "Point"}, "properties": {"Address": "Holly Park Methodist Church, N4 4BY", "EstablishmentName": "Holly Park Montessori School", "NO2_conc": 38.01952, "NumberOfPupils": "", "PM25_conc": 13.4148, "Tel": 2072636563.0, "URN": 100465, "Web": ""}, "type": "Feature"}, {"geometry": {"coordinates": [-0.098504, 51.536046], "type": "Point"}, "properties": {"Address": "Tudor Rose Building, N1 8RE", "EstablishmentName": "Richard Cloudesley School", "NO2_conc": 42.5794, "NumberOfPupils": 81.0, "PM25_conc": 14.350929999999998, "Tel": 2077048127.0, "URN": 100467, "Web": "www.cloudesley.islington.sch.uk"}, "type": "Feature"}, {"geometry": {"coordinates": [-0.206836, 51.520612], "type": "Point"}, "properties": {"Address": "2a Bevington Road, W10 5TN", "EstablishmentName": "Golborne Children's Centre", "NO2_conc": 40.24319000000001, "NumberOfPupils": 32.0, "PM25_conc": 13.91936, "Tel": 2089685622.0, "URN": 100472, "Web": "http://www.golborne.rbkc.sch.uk"}, "type": "Feature"}, {"geometry": {"coordinates": [-0.213798, 51.510656], "type": "Point"}, "properties": {"Address": "Sirdar Road, W11 4EE", "EstablishmentName": "St Anne's & Avondale Park Nursery School", "NO2_conc": 39.58173, "NumberOfPupils": 76.0, "PM25_conc": 13.7074, "Tel": 2077277727.0, "URN": 100473, "Web": "http://www.apsafederation.com"}, "type": "Feature"}, {"geometry": {"coordinates": [-0.16941, 51.48517], "type": "Point"}, "properties": {"Address": "51 Glebe Place, SW3 5JE", "EstablishmentName": "Chelsea Open Air Nursery School", "NO2_conc": 41.75014, "NumberOfPupils": 64.0, "PM25_conc": 14.18153, "Tel": 2073528374.0, "URN": 100474, "Web": "http://www.coans.rbkc.sch.uk"}, "type": "Feature"}, {"geometry": {"coordinates": [-0.205839, 51.520309], "type": "Point"}, "properties": {"Address": "2a Bevington Road, W10 5TN", "EstablishmentName": "Maxilla Nursery School", "NO2_conc": 41.47816, "NumberOfPupils": 32.0, "PM25_conc": 14.04257, "Tel": 2089685622.0, "URN": 100475, "Web": "http://maxillachildrenscentre.com"}, "type": "Feature"}, {"geometry": {"coordinates": [-0.178909, 51.48137], "type": "Point"}, "properties": {"Address": "17 Blantyre Street, SW10 0DT", "EstablishmentName": "Ashburnham Community School", "NO2_conc": 41.2157, "NumberOfPupils": 223.0, "PM25_conc": 14.13105, "Tel": 2073525740.0, "URN": 100477, "Web": "http://ashburnhamcommunityschool.org.uk/"}, "type": "Feature"}, {"geometry": {"coordinates": [-0.216489, 51.523322], "type": "Point"}, "properties": {"Address": "Barlby Road, W10 6BH", "EstablishmentName": "Barlby Primary School", "NO2_conc": 39.90094000000001, "NumberOfPupils": 372.0, "PM25_conc": 13.797720000000002, "Tel": 2089693988.0, "URN": 100478, "Web": "http://www.barlby.rbkc.sch.uk"}, "type": "Feature"}, {"geometry": {"coordinates": [-0.208161, 51.52137], "type": "Point"}, "properties": {"Address": "Bevington Road, W10 5TW", "EstablishmentName": "Bevington Primary School", "NO2_conc": 39.96713, "NumberOfPupils": 323.0, "PM25_conc": 13.90718, "Tel": 2089690629.0, "URN": 100479, "Web": "http://www.bevington.rbkc.sch.uk"}, "type": "Feature"}, {"geometry": {"coordinates": [-0.186119, 51.490223], "type": "Point"}, "properties": {"Address": "South Bolton Gardens, SW5 0DJ", "EstablishmentName": "Bousfield Primary School", "NO2_conc": 40.85822, "NumberOfPupils": 437.0, "PM25_conc": 14.30822, "Tel": 2073736544.0, "URN": 100480, "Web": "www.bousfieldprimaryschool.co.uk/"}, "type": "Feature"}, {"geometry": {"coordinates": [-0.20316, 51.514756], "type": "Point"}, "properties": {"Address": "Lonsdale Road, W11 2DF", "EstablishmentName": "Colville Primary School", "NO2_conc": 41.1314, "NumberOfPupils": 441.0, "PM25_conc": 13.997320000000002, "Tel": 2072296540.0, "URN": 100481, "Web": "http://www.colville.rbkc.sch.uk"}, "type": "Feature"}, {"geometry": {"coordinates": [-0.166054, 51.492725], "type": "Point"}, "properties": {"Address": "Draycott Avenue, SW3 3AP", "EstablishmentName": "Marlborough Primary School", "NO2_conc": 44.00957, "NumberOfPupils": 374.0, "PM25_conc": 14.56719, "Tel": 2075898553.0, "URN": 100483, "Web": "http://www.marlborough.rbkc.sch.uk"}, "type": "Feature"}, {"geometry": {"coordinates": [-0.211995, 51.525798], "type": "Point"}, "properties": {"Address": "Kensal Road, W10 5DB", "EstablishmentName": "Middle Row Primary School", "NO2_conc": 40.27512, "NumberOfPupils": "", "PM25_conc": 13.87465, "Tel": 2089694094.0, "URN": 100484, "Web": "http://www.middlerow.rbkc.sch.uk"}, "type": "Feature"}, {"geometry": {"coordinates": [-0.218976, 51.51684], "type": "Point"}, "properties": {"Address": "Oxford Gardens, W10 6NF", "EstablishmentName": "Oxford Gardens Primary School", "NO2_conc": 40.77283, "NumberOfPupils": 365.0, "PM25_conc": 13.727329999999998, "Tel": 2089691997.0, "URN": 100485, "Web": "http://www.oxfordgardens.rbkc.sch.uk"}, "type": "Feature"}, {"geometry": {"coordinates": [-0.177963, 51.484152], "type": "Point"}, "properties": {"Address": "Park Walk, SW10 0AY", "EstablishmentName": "Park Walk Primary School", "NO2_conc": 41.2696, "NumberOfPupils": 198.0, "PM25_conc": 14.1953, "Tel": 2073528700.0, "URN": 100486, "Web": "http://www.parkwalk.rbkc.sch.uk"}, "type": "Feature"}, {"geometry": {"coordinates": [-0.213798, 51.510656], "type": "Point"}, "properties": {"Address": "Sirdar Road, W11 4EE", "EstablishmentName": "Avondale Park Primary School", "NO2_conc": 39.58173, "NumberOfPupils": 349.0, "PM25_conc": 13.7074, "Tel": 2077277727.0, "URN": 100487, "Web": "http://www.avondalepark.rbkc.sch.uk"}, "type": "Feature"}, {"geometry": {"coordinates": [-0.211265, 51.515734], "type": "Point"}, "properties": {"Address": "St Mark's Road, W11 1RQ", "EstablishmentName": "Thomas Jones Primary School", "NO2_conc": 40.8313, "NumberOfPupils": 235.0, "PM25_conc": 13.806020000000002, "Tel": 2077271423.0, "URN": 100488, "Web": "http://www.thomasjonesschool.org"}, "type": "Feature"}, {"geometry": {"coordinates": [-0.156747, 51.493452], "type": "Point"}, "properties": {"Address": "Sedding Street, SW1X 9DE", "EstablishmentName": "Holy Trinity CofE Primary School", "NO2_conc": 43.93352, "NumberOfPupils": 219.0, "PM25_conc": 14.5753, "Tel": 2078819860.0, "URN": 100490, "Web": "http://www.ht.rbkc.sch.uk"}, "type": "Feature"}, {"geometry": {"coordinates": [-0.20897, 51.523909], "type": "Point"}, "properties": {"Address": "Appleford Road, W10 5EF", "EstablishmentName": "St Thomas' CofE Primary School", "NO2_conc": 40.81497, "NumberOfPupils": 232.0, "PM25_conc": 14.21519, "Tel": 2089692810.0, "URN": 100492, "Web": "http://www.st.rbkc.sch.uk"}, "type": "Feature"}, {"geometry": {"coordinates": [-0.21698, 51.512224], "type": "Point"}, "properties": {"Address": "Treadgold Street, W11 4BJ", "EstablishmentName": "Saint Francis of Assisi Catholic Primary School", "NO2_conc": 41.49728, "NumberOfPupils": 207.0, "PM25_conc": 13.846520000000002, "Tel": 2077278523.0, "URN": 100494, "Web": "http://www.stfrancisofassisi.org.uk"}, "type": "Feature"}, {"geometry": {"coordinates": [-0.211353, 51.509081], "type": "Point"}, "properties": {"Address": "Penzance Place, W11 4PG", "EstablishmentName": "St Clement and St James CofE Primary School", "NO2_conc": 39.78986, "NumberOfPupils": 186.0, "PM25_conc": 13.75528, "Tel": 2076039225.0, "URN": 100495, "Web": "http://www.scsj.rbkc.sch.uk"}, "type": "Feature"}, {"geometry": {"coordinates": [-0.162157, 51.492898], "type": "Point"}, "properties": {"Address": "Cadogan Street, SW3 2QT", "EstablishmentName": "St Joseph's Catholic Primary School", "NO2_conc": 42.88438, "NumberOfPupils": 226.0, "PM25_conc": 14.43604, "Tel": 2075892438.0, "URN": 100496, "Web": "www.stjosephs.rbkc.sch.uk/"}, "type": "Feature"}, {"geometry": {"coordinates": [-0.193641, 51.489439], "type": "Point"},